stop_id,stop_code,stop_name,stop_desc,stop_lat,stop_lon,zone_id,stop_url,location_type,parent_station,stop_timezone,wheelchair_boarding
1AARD,5009,"AVRILLE - ARDENNE",,47.511510,-0.596150,,,0,zone_AVRILLE_-_ARDENNE,,1
1ACAS,16233,"ACACIAS",,47.503662,-0.586485,,,0,zone_ACACIAS,,1
1BAMA,24604,"BAMAKO",,47.452231,-0.556340,,,0,zone_BAMAKO,,1
1BASC,4827,"BASCULE",,47.508797,-0.591643,,,0,zone_BASCULE,,1
1BMAI,16196,"BERGES DE MAINE",,47.479251,-0.549497,,,0,zone_BERGES_DE_MAINE,,1
1BOTA,24128,"TERRA BOTANICA",,47.494143,-0.574887,,,0,zone_TERRA_BOTANICA,,1
1BROY,32629,"BOIS DU ROY",,47.499656,-0.583290,,,0,zone_BOIS_DU_ROY,,1
1CAPU,29904,"CAPUCINS",,47.486972,-0.555014,,,0,zone_CAPUCINS,,1
1FMBL,11327,"FOCH MAISON BLEUE",,47.469026,-0.549513,,,0,zone_FOCH_MAISON_BLEUE,,1
1HARA,24652,"FOCH HARAS",,47.466817,-0.552566,,,0,zone_FOCH_HARAS,,1
1HOPA,24731,"CHU - HOPITAL",,47.481483,-0.553866,,,0,zone_CHU_-_HOPITAL,,1
1HSAU,3016,"HAUTS DE SAINT AUBIN",,47.492137,-0.560448,,,0,zone_HAUTS_DE_SAINT_AUBIN,,1
1JE23,24624,"JEAN XXIII",,47.448556,-0.562908,,,0,zone_JEAN_XXIII,,1
1JMOU,4159,"JEAN MOULIN",,47.490537,-0.552074,,,0,zone_JEAN_MOULIN,,1
1JVIL,20509,"JEAN VILAR",,47.444925,-0.562352,,,0,zone_JEAN_VILAR,,1
1LAFA,31950,"PLACE LA FAYETTE",,47.460867,-0.554739,,,0,zone_PLACE_LA_FAYETTE,,1
1LGAR,20910,"LES GARES",,47.464476,-0.555479,,,0,zone_LES_GARES,,1
1MOLI,2492,"MOLIERE",,47.474151,-0.554783,,,0,zone_MOLIERE,,1
1PMAY,17915,"PLATEAU DE MAYENNE",,47.495756,-0.580181,,,0,zone_PLATEAU_DE_MAYENNE,,1
1RALL,24847,"RALLIEMENT",,47.471211,-0.551782,,,0,zone_RALLIEMENT,,1
1SERG,4712,"SAINT SERGE UNIVERSITE",,47.476855,-0.551372,,,0,zone_SAINT_SERGE_UNIVERSITE,,0
1STGI,23494,"SAINT GILLES",,47.506466,-0.589496,,,0,zone_SAINT_GILLES,,1
1STRA,7319,"STRASBOURG",,47.456849,-0.554136,,,0,zone_STRASBOURG,,1
1VERN,25220,"VERNEAU TRAM",,47.492362,-0.567312,,,0,zone_VERNEAU_TRAM,,1
2ACAS,12080,"ACACIAS",,47.503739,-0.586277,,,0,zone_ACACIAS,,1
2ANRO,32091,"ANGERS - ROSERAIE",,47.443964,-0.553981,,,0,zone_ANGERS_-_ROSERAIE,,1
2BAMA,30251,"BAMAKO",,47.452179,-0.556271,,,0,zone_BAMAKO,,1
2BASC,3822,"BASCULE",,47.508797,-0.591643,,,0,zone_BASCULE,,1
2BMAI,28864,"BERGES DE MAINE",,47.479325,-0.549421,,,0,zone_BERGES_DE_MAINE,,1
2BOTA,22213,"TERRA BOTANICA",,47.494275,-0.575013,,,0,zone_TERRA_BOTANICA,,1
2BROY,31784,"BOIS DU ROY",,47.499715,-0.583108,,,0,zone_BOIS_DU_ROY,,1
2CAPU,3726,"CAPUCINS",,47.486938,-0.554933,,,0,zone_CAPUCINS,,1
2FMBL,3788,"FOCH MAISON BLEUE",,47.469087,-0.549596,,,0,zone_FOCH_MAISON_BLEUE,,1
2HARA,14426,"FOCH HARAS",,47.466764,-0.552510,,,0,zone_FOCH_HARAS,,1
2HOPA,13445,"CHU - HOPITAL",,47.481483,-0.553866,,,0,zone_CHU_-_HOPITAL,,1
2HSAU,29280,"HAUTS DE SAINT AUBIN",,47.492209,-0.560452,,,0,zone_HAUTS_DE_SAINT_AUBIN,,1
2JE23,30963,"JEAN XXIII",,47.448521,-0.562853,,,0,zone_JEAN_XXIII,,1
2JMOU,14673,"JEAN MOULIN",,47.490514,-0.551940,,,0,zone_JEAN_MOULIN,,1
2JVIL,4486,"JEAN VILAR",,47.444918,-0.562259,,,0,zone_JEAN_VILAR,,1
2LAFA,15573,"PLACE LA FAYETTE",,47.460867,-0.554739,,,0,zone_PLACE_LA_FAYETTE,,1
2LGAR,11515,"LES GARES",,47.464478,-0.555373,,,0,zone_LES_GARES,,1
2MOLI,5543,"MOLIERE",,47.474218,-0.554614,,,0,zone_MOLIERE,,1
2PMAY,4961,"PLATEAU DE MAYENNE",,47.495805,-0.580011,,,0,zone_PLATEAU_DE_MAYENNE,,1
2RALL,22040,"RALLIEMENT",,47.471285,-0.551680,,,0,zone_RALLIEMENT,,1
2SERG,8368,"SAINT SERGE UNIVERSITE",,47.476813,-0.551276,,,0,zone_SAINT_SERGE_UNIVERSITE,,0
2STGI,31945,"SAINT GILLES",,47.506515,-0.589365,,,0,zone_SAINT_GILLES,,1
2STRA,16728,"STRASBOURG",,47.457472,-0.554090,,,0,zone_STRASBOURG,,1
2VERN,13983,"VERNEAU TRAM",,47.492443,-0.567304,,,0,zone_VERNEAU_TRAM,,1
AAMIPI,32237,"AMIPI",,47.463706,-0.626649,,,0,zone_AMIPI,,0
AAMIPI-E,28632,"AMIPI",,47.463779,-0.626664,,,0,zone_AMIPI,,0
AARD-7C,562,"AVRILLE - ARDENNE",,47.511061,-0.595373,,,0,zone_AVRILLE_-_ARDENNE,,1
AARD-7E,27206,"AVRILLE - ARDENNE",,47.511986,-0.596535,,,0,zone_AVRILLE_-_ARDENNE,,1
ABI,180,"AVICENNE",,47.481310,-0.688481,,,0,zone_AVICENNE,,0
ABI-E,931,"AVICENNE",,47.481227,-0.688860,,,0,zone_AVICENNE,,0
ACADEMIE,913399,"ACADEMIE",,47.467582,-0.559105,,,0,zone_ACADEMIE,,0
ACAD-PLA,33737,"ACADEMIE",,47.468355,-0.558750,,,0,zone_ACADEMIE,,0
ACAS-7C,9581,"ACACIAS",,47.502728,-0.585677,,,0,zone_ACACIAS,,0
ACAS-7E,19485,"ACACIAS",,47.503235,-0.585904,,,0,zone_ACACIAS,,0
ADEZIERE,1649,"AVRILLE ADEZIERE",,47.504918,-0.605111,,,0,zone_AVRILLE_ADEZIERE,,1
AIGREFOI,805210,"AIGREFOIN",,47.473271,-0.439669,,,0,zone_AIGREFOIN,,0
ALEROY,16814,"ANDRE LEROY",,47.464498,-0.548546,,,0,zone_ANDRE_LEROY,,1
ALLARD,27879,"ALLARD",,47.449623,-0.538895,,,0,zone_ALLARD,,1
ALLARD-E,5528,"ALLARD",,47.448916,-0.538647,,,0,zone_ALLARD,,1
ALLEMA-E,9078,"ALLEMAGNE",,47.528007,-0.599936,,,0,zone_ALLEMAGNE,,1
ALLEMAGN,7193,"ALLEMAGNE",,47.526691,-0.601943,,,0,zone_ALLEMAGNE,,1
ALLONN-E,5460,"ALLONNEAU",,47.485222,-0.526929,,,0,zone_ALLONNEAU,,1
ALLONNEA,16562,"ALLONNEAU",,47.485156,-0.527018,,,0,zone_ALLONNEAU,,1
ALLUME-E,6636,"ALLUMETTES",,47.445034,-0.502213,,,0,zone_ALLUMETTES,,0
ALLUMETT,15447,"ALLUMETTES",,47.445142,-0.502320,,,0,zone_ALLUMETTES,,0
ANAFRA-E,882585,"ANATOLE FRANCE",,47.531356,-0.613781,,,0,zone_ANATOLE_FRANCE,,1
ANAFRAN,345518,"ANATOLE FRANCE",,47.531121,-0.613717,,,0,zone_ANATOLE_FRANCE,,1
ANBRUE-E,648185,"ANDRE BRUEL",,47.526706,-0.467992,,,0,zone_ANDRE_BRUEL,,1
ANBRUEL,491458,"ANDRE BRUEL",,47.526561,-0.468102,,,0,zone_ANDRE_BRUEL,,1
ANDALA-E,587106,"GRAND LAUNAY",,47.461947,-0.387219,,,0,zone_GRAND_LAUNAY,,0
ANDALAUN,544772,"GRAND LAUNAY",,47.461900,-0.387385,,,0,zone_GRAND_LAUNAY,,0
ANDAMA-E,319038,"ANDARD MAIRIE",,47.456557,-0.397699,,,0,zone_ANDARD_MAIRIE,,0
ANDAMAIR,383609,"ANDARD MAIRIE",,47.456494,-0.398196,,,0,zone_ANDARD_MAIRIE,,0
ANDARE-E,503720,"REZEAU",,47.466883,-0.381880,,,0,zone_REZEAU,,0
ANDARESA,293715,"REZEAU",,47.467917,-0.378972,,,0,zone_REZEAU,,0
ANFRANCK,6103,"ANNE FRANK",,47.463559,-0.537808,,,0,zone_ANNE_FRANK,,1
ANFRAN-E,7909,"ANNE FRANK",,47.463463,-0.537668,,,0,zone_ANNE_FRANK,,1
ANLERO-E,14800,"ANDRE LEROY",,47.464710,-0.549014,,,0,zone_ANDRE_LEROY,,1
ANLEROY,29097,"ANDRE LEROY",,47.464588,-0.548259,,,0,zone_ANDRE_LEROY,,1
ANRO-11C,7919,"ANGERS - ROSERAIE",,47.444921,-0.551629,,,0,zone_ANGERS_-_ROSERAIE,,0
ANRO-11E,17931,"ANGERS - ROSERAIE",,47.444877,-0.551827,,,0,zone_ANGERS_-_ROSERAIE,,0
ANRO-5A,17458,"ANGERS - ROSERAIE",,47.443977,-0.553905,,,0,zone_ANGERS_-_ROSERAIE,,1
ANRO-5B,12151,"ANGERS - ROSERAIE",,47.443826,-0.553682,,,0,zone_ANGERS_-_ROSERAIE,,1
APPENT-E,20678,"APPENTIS",,47.445235,-0.546590,,,0,zone_APPENTIS,,1
APPENTIS,30879,"APPENTIS",,47.445471,-0.546247,,,0,zone_APPENTIS,,1
AQUA-A5A,17213,"AQUAVITA - CIRCULAIRE SENS A",,47.493383,-0.565344,,,0,zone_AQUAVITA_-_CIRCULAIRE_SENS_A,,1
AQUA-A5B,961964,"AQUAVITA - CIRCULAIRE SENS B",,47.493897,-0.565311,,,0,zone_AQUAVITA_-_CIRCULAIRE_SENS_B,,1
AQUA-D5A,55947,"AQUAVITA - CIRCULAIRE SENS A",,47.493401,-0.565330,,,0,zone_AQUAVITA_-_CIRCULAIRE_SENS_A,,1
AQUAVITA,52941,"AQUAVITA",,47.493897,-0.565311,,,0,zone_AQUAVITA,,1
AQUIT11,462834,"ALIENOR D'AQUITAINE",,47.462811,-0.614874,,,0,zone_ALIENOR_D'AQUITAINE,,1
AQUITA-E,14482,"ALIENOR D'AQUITAINE",,47.463010,-0.615095,,,0,zone_ALIENOR_D'AQUITAINE,,1
AQVI-D5B,96211,"AQUAVITA - CIRCULAIRE SENS B",,47.493405,-0.565512,,,0,zone_AQUAVITA_-_CIRCULAIRE_SENS_B,,1
ARAGO-E,26055,"ARAGON",,47.471741,-0.567496,,,0,zone_ARAGON,,0
ARAGON,25304,"ARAGON",,47.471647,-0.567014,,,0,zone_ARAGON,,0
ARBORE-E,21951,"ARBORETUM",,47.449393,-0.544329,,,0,zone_ARBORETUM,,1
ARBORETU,32544,"ARBORETUM",,47.449329,-0.544227,,,0,zone_ARBORETUM,,1
ARCAD-E,17259,"ARCADES",,47.507207,-0.516602,,,0,zone_ARCADES,,0
ARCADES,24569,"ARCADES",,47.506796,-0.516918,,,0,zone_ARCADES,,0
ARCEAU,15889,"ARCEAU",,47.471050,-0.519755,,,0,zone_ARCEAU,,1
ARCEAU-E,16444,"ARCEAU",,47.471003,-0.519810,,,0,zone_ARCEAU,,1
AROBA-E,31354,"AROBASE",,47.464041,-0.531683,,,0,zone_AROBASE,,0
AROBASE,21097,"AROBASE",,47.464503,-0.531562,,,0,zone_AROBASE,,0
ARTAUD,22172,"ARTAUD",,47.434033,-0.611012,,,0,zone_ARTAUD,,1
ARTAUD-E,14855,"ARTAUD",,47.433325,-0.610844,,,0,zone_ARTAUD,,1
ATHLET-E,12108,"ATHLETIS",,47.441445,-0.528397,,,0,zone_ATHLETIS,,1
ATHLETIS,30156,"ATHLETIS",,47.441681,-0.528078,,,0,zone_ATHLETIS,,1
ATOLL,21638,"L'ATOLL",,47.483068,-0.632233,,,0,zone_L'ATOLL,,0
ATOLL AR,673486,"BEAUCOUZE L'ATOLL",,47.484244,-0.626442,,,0,zone_BEAUCOUZE_L'ATOLL,,1
ATOLLBEA,20041,"BEAUCOUZE L'ATOLL",,47.484244,-0.626442,,,0,zone_BEAUCOUZE_L'ATOLL,,1
ATOLL-E,43346,"L'ATOLL",,47.483160,-0.632533,,,0,zone_L'ATOLL,,0
ATSVILLE,329831,"ECOLE ACCUEIL VILLEVEQUE",,47.561573,-0.421014,,,0,zone_ECOLE_ACCUEIL_VILLEVEQUE,,0
AUBEPI-E,9385,"AUBEPINE",,47.461579,-0.495885,,,0,zone_AUBEPINE,,1
AUBEPINE,8536,"AUBEPINE",,47.461703,-0.495994,,,0,zone_AUBEPINE,,1
AUBERD-E,830731,"AUBERDERIE",,47.537970,-0.478530,,,0,zone_AUBERDERIE,,0
AUBERDER,747618,"AUBERDERIE",,47.537920,-0.478750,,,0,zone_AUBERDERIE,,0
AUBRIA-E,16914,"AUBRIAIS",,47.515758,-0.667603,,,0,zone_AUBRIAIS,,0
AUBRIAIS,18000,"AUBRIAIS",,47.516063,-0.667862,,,0,zone_AUBRIAIS,,0
AUBRY,7225,"AUBRY",,47.440962,-0.552265,,,0,zone_AUBRY,,0
AUBRY-E,48579,"AUBRY",,47.441773,-0.552160,,,0,zone_AUBRY,,0
AULNAI-E,172702,"LES AULNAIES",,47.586900,-0.439870,,,0,zone_LES_AULNAIES,,0
AULNAIES,193602,"LES AULNAIES",,47.586810,-0.439760,,,0,zone_LES_AULNAIES,,0
AULNERIE,937759,"AULNERIE",,47.587410,-0.492940,,,0,zone_AULNERIE,,0
AURI-A5B,173687,"AURIOL",,47.490648,-0.564589,,,0,zone_AURIOL,,1
AUTHIO-E,24408,"AUTHION",,47.431520,-0.528911,,,0,zone_AUTHION,,1
AUTHION,22482,"AUTHION",,47.431496,-0.528522,,,0,zone_AUTHION,,1
AUTRIC-E,30185,"AUTRICHE",,47.522954,-0.609377,,,0,zone_AUTRICHE,,1
AUTRICH,18326,"AUTRICHE",,47.522954,-0.609923,,,0,zone_AUTRICHE,,1
AUVERG-E,3123,"AUVERGNE",,47.490211,-0.530079,,,0,zone_AUVERGNE,,1
AUVERGNE,2306,"AUVERGNE",,47.489544,-0.530773,,,0,zone_AUVERGNE,,1
AVALOU-E,119328,"AVALOUP",,47.456850,-0.436967,,,0,zone_AVALOUP,,0
AVALOUP,351192,"AVALOUP",,47.456812,-0.437072,,,0,zone_AVALOUP,,0
AVENEU-E,3623,"AVENUE DE L'EUROPE",,47.528246,-0.594825,,,0,zone_AVENUE_DE_L'EUROPE,,1
AVENEURO,31525,"AVENUE DE L'EUROPE",,47.527908,-0.595778,,,0,zone_AVENUE_DE_L'EUROPE,,1
BAHONN-E,1159,"BAHONNEAU",,47.453073,-0.483161,,,0,zone_BAHONNEAU,,0
BAHONNEA,26142,"BAHONNEAU",,47.452824,-0.483328,,,0,zone_BAHONNEAU,,0
BALANDE,29121,"BASSE LANDE",,47.505123,-0.594881,,,0,zone_BASSE_LANDE,,1
BALAND-E,30198,"BASSE LANDE",,47.505468,-0.595414,,,0,zone_BASSE_LANDE,,1
BALLOUR,23505,"BALLOUR",,47.483196,-0.562431,,,0,zone_BALLOUR,,0
BANCHA-E,25865,"BANCHAIS",,47.485527,-0.511799,,,0,zone_BANCHAIS,,1
BANCHAIS,25147,"BANCHAIS",,47.485247,-0.512136,,,0,zone_BANCHAIS,,1
BANCST-E,2573,"BANCHAIS",,47.485863,-0.512459,,,0,zone_BANCHAIS,,0
BANCSTMA,20610,"BANCHAIS",,47.485886,-0.512371,,,0,zone_BANCHAIS,,0
BARBOT-E,1092,"BARBOTTERIE",,47.400597,-0.524957,,,0,zone_BARBOTTERIE,,1
BARBOTER,24521,"BARBOTTERIE",,47.400460,-0.524823,,,0,zone_BARBOTTERIE,,1
BARON AR,22071,"SAINT AUBIN LA SALLE",,47.489725,-0.503600,,,0,zone_SAINT_AUBIN_LA_SALLE,,0
BARONERI,30230,"SAINT AUBIN LA SALLE",,47.489421,-0.503178,,,0,zone_SAINT_AUBIN_LA_SALLE,,0
BARONN-E,693977,"SAINT AUBIN LA SALLE",,47.489307,-0.504060,,,0,zone_SAINT_AUBIN_LA_SALLE,,1
BARONNER,2861,"SAINT AUBIN LA SALLE",,47.489307,-0.504060,,,0,zone_SAINT_AUBIN_LA_SALLE,,1
BARRA,21480,"BARRA",,47.483714,-0.563865,,,0,zone_BARRA,,1
BARRA -E,2442,"BARRA",,47.483829,-0.563788,,,0,zone_BARRA,,1
BASCHE-E,884139,"BASSE CHESNAIE",,47.573732,-0.675781,,,0,zone_BASSE_CHESNAIE,,0
BASCHESN,652997,"BASSE CHESNAIE",,47.573732,-0.675781,,,0,zone_BASSE_CHESNAIE,,0
BASMOR-E,8169,"BAS MORTIER",,47.515382,-0.474505,,,0,zone_BAS_MORTIER,,1
BASMORTI,7483,"BAS MORTIER",,47.515350,-0.474597,,,0,zone_BAS_MORTIER,,1
BAUDON,289578,"BAUDON",,47.539400,-0.579170,,,0,zone_BAUDON,,0
BAUDON-E,732813,"BAUDON",,47.539220,-0.579270,,,0,zone_BAUDON,,0
BAUDRA-E,11299,"BAUDRAIRIE",,47.437839,-0.507533,,,0,zone_BAUDRAIRIE,,1
BAUDRAI,19950,"BAUDRAIRIE",,47.437881,-0.507132,,,0,zone_BAUDRAIRIE,,1
BAUNBR-E,58353,"CHÂTEAU DE BRIANÇON",,47.503403,-0.351861,,,0,zone_CHÂTEAU_DE_BRIANÇON,,0
BAUNBRIA,109894,"CHÂTEAU DE BRIANÇON",,47.503485,-0.351535,,,0,zone_CHÂTEAU_DE_BRIANÇON,,0
BAUNCE-E,928925,"BAUNE CENTRE RD 116",,47.499358,-0.318355,,,0,zone_BAUNE_CENTRE_RD_116,,0
BAUNCENT,353041,"BAUNE CENTRE RD 116",,47.499406,-0.318603,,,0,zone_BAUNE_CENTRE_RD_116,,0
BAUNEC-E,442256,"BAUNE ECOLE PUBLIQUE",,47.498267,-0.318984,,,0,zone_BAUNE_ECOLE_PUBLIQUE,,0
BAUNECOL,766671,"BAUNE ECOLE PUBLIQUE",,47.498267,-0.318984,,,0,zone_BAUNE_ECOLE_PUBLIQUE,,0
BBMAT,11748,"MAISON DE TECHNOPOLE",,47.478291,-0.606260,,,0,zone_MAISON_DE_TECHNOPOLE,,1
BBRANC-E,27533,"BELLEBRANCHE",,47.528223,-0.528222,,,0,zone_BELLEBRANCHE,,1
BBRANCHE,22762,"BELLEBRANCHE",,47.528137,-0.528277,,,0,zone_BELLEBRANCHE,,1
BEADI-AR,10612,"MAIRIE DE BEAUCOUZE",,47.474611,-0.632113,,,0,zone_MAIRIE_DE_BEAUCOUZE,,0
BEADIM,8391,"MAIRIE DE BEAUCOUZE",,47.474611,-0.632113,,,0,zone_MAIRIE_DE_BEAUCOUZE,,0
BEAUC AR,29830,"BEAUCOUZE HAUTE ROCHE",,47.470316,-0.625143,,,0,zone_BEAUCOUZE_HAUTE_ROCHE,,0
BEAUCOUZ,28687,"BEAUCOUZE HAUTE ROCHE",,47.470281,-0.625114,,,0,zone_BEAUCOUZE_HAUTE_ROCHE,,0
BEAUFI-E,2771,"BEAUMANOIR",,47.451890,-0.510475,,,0,zone_BEAUMANOIR,,0
BEAULI-E,12880,"BEAULIEU",,47.495504,-0.436678,,,0,zone_BEAULIEU,,0
BEAULIEU,4126,"BEAULIEU",,47.495502,-0.437021,,,0,zone_BEAULIEU,,0
BEAUMAN,27618,"BEAUMANOIR",,47.451621,-0.510432,,,0,zone_BEAUMANOIR,,0
BEAUM-E,3588,"BEAUMANOIR",,47.451403,-0.510767,,,0,zone_BEAUMANOIR,,0
BEAURE-E,6393,"BEAUREPAIRE",,47.473907,-0.559496,,,0,zone_BEAUREPAIRE,,0
BEAUREPA,15816,"BEAUREPAIRE",,47.474032,-0.559665,,,0,zone_BEAUREPAIRE,,0
BEAUVA-E,11101,"BEAUVAL",,47.451691,-0.551240,,,0,zone_BEAUVAL,,0
BEAUVAL,9892,"BEAUVAL",,47.452808,-0.553184,,,0,zone_BEAUVAL,,0
BECKE,58108,"BECKER",,47.538845,-0.622039,,,0,zone_BECKER,,1
BECK-E,67197,"BECKER",,47.538839,-0.622120,,,0,zone_BECKER,,1
BEDAUD-E,5506,"BEDAUDIERE",,47.501364,-0.393624,,,0,zone_BEDAUDIERE,,0
BEDAUDIE,26883,"BEDAUDIERE",,47.501299,-0.395064,,,0,zone_BEDAUDIERE,,0
BEDIER,16246,"BEDIER",,47.450114,-0.552667,,,0,zone_BEDIER,,0
BEDIER-E,14067,"BEDIER",,47.449915,-0.552695,,,0,zone_BEDIER,,0
BELAIR,17130,"BEL AIR",,47.529863,-0.606978,,,0,zone_BEL_AIR,,1
BELAIR-E,15243,"BEL AIR",,47.529855,-0.607285,,,0,zone_BEL_AIR,,1
BELFON-E,32395,"MAISON DES ARTS",,47.471753,-0.537337,,,0,zone_MAISON_DES_ARTS,,1
BELFONTA,31709,"MAISON DES ARTS",,47.471814,-0.537742,,,0,zone_MAISON_DES_ARTS,,1
BELLAN-E,32424,"BELLANGERIE",,47.482306,-0.684555,,,0,zone_BELLANGERIE,,0
BELLANGE,8582,"BELLANGERIE",,47.482247,-0.684903,,,0,zone_BELLANGERIE,,0
BELLCO-E,536209,"BELLEVUE CORNE",,47.473559,-0.346394,,,0,zone_BELLEVUE_CORNE,,0
BELLCORN,275985,"BELLEVUE CORNE",,47.473574,-0.346331,,,0,zone_BELLEVUE_CORNE,,0
BELLVUTR,30214,"BELLEVUE",,47.448185,-0.506870,,,0,zone_BELLEVUE,,1
BELNOUE,672416,"BELLENOUE",,47.420576,-0.300958,,,0,zone_BELLENOUE,,0
BELOEI-E,15961,"BEL OEIL",,47.427037,-0.556703,,,0,zone_BEL_OEIL,,0
BELOEIL,7658,"BEL OEIL",,47.426786,-0.556699,,,0,zone_BEL_OEIL,,0
BELPOU-E,21861,"BELLE POULE",,47.428462,-0.527619,,,0,zone_BELLE_POULE,,0
BELPOULE,21306,"BELLE POULE",,47.427804,-0.527207,,,0,zone_BELLE_POULE,,0
BELVTR-E,29169,"BELLEVUE",,47.447894,-0.507986,,,0,zone_BELLEVUE,,1
BENE,3624,"MONTREUIL JUIGNE - BENE",,47.541127,-0.609576,,,0,zone_MONTREUIL_JUIGNE_-_BENE,,1
BENE-E,27645,"MONTREUIL JUIGNE - BENE",,47.541124,-0.609497,,,0,zone_MONTREUIL_JUIGNE_-_BENE,,1
BEURRI-E,23326,"BEURRIERE",,47.497355,-0.589257,,,0,zone_BEURRIERE,,1
BEURRIER,21726,"BEURRIERE",,47.497569,-0.589525,,,0,zone_BEURRIERE,,1
BIAIS,889875,"BIAIS",,47.584700,-0.539310,,,0,zone_BIAIS,,0
BIAIS-E,841213,"BIAIS",,47.584790,-0.539520,,,0,zone_BIAIS,,0
BICHO.-E,991,"BICHON",,47.479365,-0.564699,,,0,zone_BICHON,,1
BICHON,27019,"BICHON",,47.478770,-0.564281,,,0,zone_BICHON,,1
BICHON.,7036,"BICHON",,47.479321,-0.564773,,,0,zone_BICHON,,1
BICHON-E,20435,"BICHON",,47.479221,-0.563609,,,0,zone_BICHON,,1
BIGOT-E,21778,"BIGOT",,47.482359,-0.560836,,,0,zone_BIGOT,,1
BIOP-E,48952,"BIOPOLE",,47.482039,-0.496280,,,0,zone_BIOPOLE,,1
BIOPOL,13485,"BIOPOLE",,47.482228,-0.496550,,,0,zone_BIOPOLE,,1
BIRGTEC,17769,"BIRGE",,47.474712,-0.519845,,,0,zone_BIRGE,,1
BIRGTE-E,13020,"BIRGE",,47.475216,-0.519832,,,0,zone_BIRGE,,1
BLANDEAU,7587,"BLANDEAU",,47.457521,-0.543354,,,0,zone_BLANDEAU,,1
BLANDE-E,2217,"BLANDEAU",,47.457387,-0.543178,,,0,zone_BLANDEAU,,1
BLERIO-E,3197,"BLERIOT",,47.486170,-0.563486,,,0,zone_BLERIOT,,1
BLERIOT,22166,"BLERIOT",,47.485933,-0.563579,,,0,zone_BLERIOT,,1
BLITOU-E,8054,"BLITOURNE",,47.527416,-0.434127,,,0,zone_BLITOURNE,,0
BLITOURN,8555,"BLITOURNE",,47.527097,-0.434247,,,0,zone_BLITOURNE,,0
BMAI-9C,14427,"BERGES DE MAINE",,47.478776,-0.549617,,,0,zone_BERGES_DE_MAINE,,1
BMAI-9E,11244,"BERGES DE MAINE",,47.478504,-0.548914,,,0,zone_BERGES_DE_MAINE,,1
BMARZE-E,10489,"BASSE MARZELLE",,47.341750,-0.525000,,,0,zone_BASSE_MARZELLE,,0
BMARZELL,29922,"BASSE MARZELLE",,47.341794,-0.524850,,,0,zone_BASSE_MARZELLE,,0
BMOTTE,25850,"BELLE MOTTE",,47.531064,-0.516539,,,0,zone_BELLE_MOTTE,,1
BMOTTE-E,11002,"BELLE MOTTE",,47.530991,-0.516433,,,0,zone_BELLE_MOTTE,,1
BODINI-E,298774,"BODINIERE",,47.585330,-0.447800,,,0,zone_BODINIERE,,0
BODINIER,906273,"BODINIERE",,47.585270,-0.447780,,,0,zone_BODINIERE,,0
BOHABRAI,38658,"ROUTE DE BRAIN",,47.421405,-0.399225,,,0,zone_ROUTE_DE_BRAIN,,0
BOHABR-E,377290,"ROUTE DE BRAIN",,47.421431,-0.399146,,,0,zone_ROUTE_DE_BRAIN,,0
BOHACE-E,374732,"CENDREUSE",,47.422391,-0.385045,,,0,zone_CENDREUSE,,0
BOHACEND,953348,"CENDREUSE",,47.422465,-0.384815,,,0,zone_CENDREUSE,,0
BOHASA-E,429073,"CHEMIN SALETTE",,47.424648,-0.389363,,,0,zone_CHEMIN_SALETTE,,0
BOHASALE,300213,"CHEMIN SALETTE",,47.424699,-0.388943,,,0,zone_CHEMIN_SALETTE,,0
BOIRES,904270,"LES BOIRES",,47.410755,-0.296010,,,0,zone_LES_BOIRES,,0
BOISABBE,1559,"BOIS L'ABBE",,47.490304,-0.514170,,,0,zone_BOIS_L'ABBE,,0
BOISAB-E,2212,"BOIS L'ABBE",,47.490417,-0.513995,,,0,zone_BOIS_L'ABBE,,0
BOISEP-E,617836,"LE BOIS D'EPINARD",,47.474476,-0.330307,,,0,zone_LE_BOIS_D'EPINARD,,0
BOISEPI2,142312,"LE BOIS D'EPINARD",,47.474547,-0.330316,,,0,zone_LE_BOIS_D'EPINARD,,0
BOISHO-E,277487,"BOIS DE L'HOPITAL",,47.470370,-0.458930,,,0,zone_BOIS_DE_L'HOPITAL,,0
BOISHOPI,778313,"BOIS DE L'HOPITAL",,47.470590,-0.458970,,,0,zone_BOIS_DE_L'HOPITAL,,0
BOISNERI,923534,"LA BOISNERIE",,47.511585,-0.360022,,,0,zone_LA_BOISNERIE,,0
BOISPO-E,692413,"BOIS DE POUILLE",,47.423298,-0.687619,,,0,zone_BOIS_DE_POUILLE,,0
BOISPOUI,393328,"BOIS DE POUILLE",,47.423298,-0.687619,,,0,zone_BOIS_DE_POUILLE,,0
BOISRA-E,4209,"BOISRAME",,47.478251,-0.584703,,,0,zone_BOISRAME,,1
BOISRAME,22086,"BOISRAME",,47.478302,-0.584785,,,0,zone_BOISRAME,,1
BONCOIN,153139,"CORNE LA BASCULE",,47.471606,-0.341088,,,0,zone_CORNE_LA_BASCULE,,0
BONNER-E,723312,"BONNERIE",,47.522710,-0.446310,,,0,zone_BONNERIE,,0
BONPLA-E,542285,"BONPLAND",,47.514501,-0.590964,,,0,zone_BONPLAND,,1
BONPLAND,204457,"BONPLAND",,47.514576,-0.589749,,,0,zone_BONPLAND,,1
BOPON-E,8578,"BOUCHEMAINE PONT",,47.420516,-0.610561,,,0,zone_BOUCHEMAINE_PONT,,0
BOPONT,5303,"BOUCHEMAINE PONT",,47.420657,-0.610389,,,0,zone_BOUCHEMAINE_PONT,,0
BOREAU,22327,"BOREAU",,47.475232,-0.546084,,,0,zone_BOREAU,,1
BOREAU-E,806695,"BOREAU",,47.474899,-0.546207,,,0,zone_BOREAU,,0
BOSCH,10110,"BOIS RINIER",,47.476544,-0.498143,,,0,zone_BOIS_RINIER,,0
BOSCH -E,8650,"BOIS RINIER",,47.476488,-0.497441,,,0,zone_BOIS_RINIER,,0
BOSQUE-E,9680,"BOSQUET",,47.409710,-0.524708,,,0,zone_BOSQUET,,0
BOSQUET,13421,"BOSQUET",,47.409961,-0.524513,,,0,zone_BOSQUET,,0
BOUCHE-E,10804,"BOUCHEMAINE CENTRE",,47.421537,-0.610432,,,0,zone_BOUCHEMAINE_CENTRE,,1
BOUCHEM,9302,"BOUCHEMAINE CENTRE",,47.421753,-0.610467,,,0,zone_BOUCHEMAINE_CENTRE,,1
BOUGO.-E,10871,"BOURGONNIER",,47.461665,-0.541197,,,0,zone_BOURGONNIER,,1
BOUGONNI,27073,"BOURGONNIER",,47.462170,-0.542353,,,0,zone_BOURGONNIER,,1
BOULLE,7334,"BOULLE",,47.486705,-0.628607,,,0,zone_BOULLE,,1
BOULLE-E,15478,"BOULLE",,47.486504,-0.628684,,,0,zone_BOULLE,,1
BOURG,25980,"BOURG",,47.590729,-0.555286,,,0,zone_BOURG,,1
BOURG-E,14979,"BOURG",,47.590755,-0.555265,,,0,zone_BOURG,,1
BOURGLAC,28777,"BOURG LA CROIX",,47.450860,-0.523820,,,0,zone_BOURG_LA_CROIX,,0
BOURGL-E,178374,"BOURG LA CROIX",,47.450720,-0.523830,,,0,zone_BOURG_LA_CROIX,,0
BOURJOLY,84254,"BOURG JOLY",,47.408703,-0.313406,,,0,zone_BOURG_JOLY,,0
BOURRELI,385547,"BOURRELIERE",,47.382110,-0.564070,,,0,zone_BOURRELIERE,,0
BOURSE,18560,"BOURSE",,47.442769,-0.495491,,,0,zone_BOURSE,,0
BOURSE-E,19507,"BOURSE",,47.442596,-0.495105,,,0,zone_BOURSE,,0
BOUTEI-E,117791,"BOUTEILLERIE",,47.479830,-0.431870,,,0,zone_BOUTEILLERIE,,0
BOUTEILL,602328,"BOUTEILLERIE",,47.479850,-0.432150,,,0,zone_BOUTEILLERIE,,0
BOUTHO-E,12112,"BOUCHE THOMAS",,47.444611,-0.550261,,,0,zone_BOUCHE_THOMAS,,1
BOUTHOMA,29965,"BOUCHE THOMAS",,47.444795,-0.549992,,,0,zone_BOUCHE_THOMAS,,1
BOUVET,3637,"BOUVET",,47.562755,-0.675248,,,0,zone_BOUVET,,0
BOUVET-E,30358,"BOUVET",,47.563298,-0.675838,,,0,zone_BOUVET,,0
BPASTE-E,11261,"BON PASTEUR",,47.470473,-0.569782,,,0,zone_BON_PASTEUR,,0
BPASTEUR,29906,"BON PASTEUR",,47.470315,-0.569689,,,0,zone_BON_PASTEUR,,0
BRAI8MAI,789925,"PLACE DU 8 MAI",,47.446247,-0.412309,,,0,zone_PLACE_DU_8_MAI,,0
BRAI8M-E,562043,"PLACE DU 8 MAI",,47.445957,-0.412094,,,0,zone_PLACE_DU_8_MAI,,0
BRAIBO-E,348073,"CROIX DE BOIS",,47.449052,-0.424390,,,0,zone_CROIX_DE_BOIS,,0
BRAIBOIS,551743,"CROIX DE BOIS",,47.449075,-0.424379,,,0,zone_CROIX_DE_BOIS,,0
BRAICO-E,837119,"CROIX COMBEAU",,47.454177,-0.408329,,,0,zone_CROIX_COMBEAU,,0
BRAICOMB,699137,"CROIX COMBEAU",,47.454220,-0.408520,,,0,zone_CROIX_COMBEAU,,0
BRAINARG,933848,"CREMAILLERE D'ARGENT",,47.465303,-0.433274,,,0,zone_CREMAILLÈRE_D'ARGENT,,0
BRAINNAR,776186,"LYCEE NARCE",,47.448869,-0.429903,,,0,zone_LYCEE_NARCE,,0
BRAINN-E,145513,"LYCEE NARCE",,47.448613,-0.431014,,,0,zone_LYCEE_NARCE,,0
BRARDIER,974048,"BRARDIERE",,47.581760,-0.494360,,,0,zone_BRARDIERE,,0
BRASSE-E,25269,"BRASSENS",,47.494869,-0.587224,,,0,zone_BRASSENS,,1
BRASSENS,351,"BRASSENS",,47.494140,-0.586446,,,0,zone_BRASSENS,,1
BREMON-E,25430,"GARES BREMONT",,47.465978,-0.559352,,,0,zone_GARES_BREMONT,,1
BRETEAU,22377,"BRETEAU",,47.574068,-0.438660,,,0,zone_BRETEAU,,1
BRGPAI-E,12036,"BOURG DE PAILLE",,47.474873,-0.624698,,,0,zone_BOURG_DE_PAILLE,,1
BRGPAILL,10958,"BOURG DE PAILLE",,47.474357,-0.624903,,,0,zone_BOURG_DE_PAILLE,,1
BRIOLLAY,14848,"MAIRIE DE BRIOLLAY",,47.563684,-0.507665,,,0,zone_MAIRIE_DE_BRIOLLAY,,0
BRIOLL-E,24952,"MAIRIE DE BRIOLLAY",,47.563476,-0.507357,,,0,zone_MAIRIE_DE_BRIOLLAY,,0
BRISEP-E,3496,"BRISEPOTIERE",,47.479396,-0.527282,,,0,zone_BRISEPOTIERE,,1
BRISEPOA,27984,"BRISEPOTIERE",,47.479493,-0.528113,,,0,zone_BRISEPOTIERE,,1
BRISEPOT,2222,"BRISEPOTIERE",,47.479515,-0.527246,,,0,zone_BRISEPOTIERE,,1
BROCHO-E,624034,"BROCHONS",,47.421858,-0.327337,,,0,zone_BROCHONS,,0
BROCHONS,294849,"BROCHONS",,47.421939,-0.327339,,,0,zone_BROCHONS,,0
BRULET-E,834085,"LA BRULETTE",,47.580040,-0.440697,,,0,zone_LA_BRULETTE,,0
BRULETTE,686700,"LA BRULETTE",,47.580040,-0.440697,,,0,zone_LA_BRULETTE,,0
BRUYER-E,582332,"HAUTES BRUYERES",,47.593497,-0.454406,,,0,zone_HAUTES_BRUYERES,,0
BRUYERES,194024,"HAUTES BRUYERES",,47.593469,-0.454418,,,0,zone_HAUTES_BRUYERES,,0
BSOLEI-E,12061,"BEAU SOLEIL",,47.426703,-0.721371,,,0,zone_BEAU_SOLEIL,,0
BSOLEIL,30366,"BEAU SOLEIL",,47.426608,-0.721238,,,0,zone_BEAU_SOLEIL,,0
BUCHET-E,306514,"BUCHETIERE",,47.559784,-0.428115,,,0,zone_BUCHETIERE,,0
BUCHETIE,736317,"BUCHETIERE",,47.559563,-0.428238,,,0,zone_BUCHETIERE,,0
BUISBE-E,234869,"LES BUISSONS BELLES",,47.447975,-0.421026,,,0,zone_LES_BUISSONS_BELLES,,0
BUISBELL,40296,"LES BUISSONS BELLES",,47.448004,-0.421001,,,0,zone_LES_BUISSONS_BELLES,,0
BUISSO-E,5587,"TRELAZE BUISSON",,47.442001,-0.484008,,,0,zone_TRELAZE_BUISSON,,1
BUISSON,3856,"TRELAZE BUISSON",,47.441894,-0.484615,,,0,zone_TRELAZE_BUISSON,,1
BVALLE-E,29950,"BASSES VALLEES",,47.579080,-0.499747,,,0,zone_BASSES_VALLEES,,0
BVALLEES,31943,"BASSES VALLEES",,47.579260,-0.499701,,,0,zone_BASSES_VALLEES,,0
CALAIS,775835,"CALAIS",,47.462069,-0.432503,,,0,zone_CALAIS,,0
CALAIS-E,419613,"CALAIS",,47.462177,-0.432464,,,0,zone_CALAIS,,0
CAMELIAS,11696,"CAMELIA",,47.471287,-0.519018,,,0,zone_CAMELIA,,1
CAMELI-E,10436,"CAMELIA",,47.471340,-0.519165,,,0,zone_CAMELIA,,1
CAMLAC-E,1059,"LAC DE MAINE CAMPING",,47.457704,-0.597171,,,0,zone_LAC_DE_MAINE_CAMPING,,1
CAMLACMA,276,"LAC DE MAINE CAMPING",,47.458134,-0.597035,,,0,zone_LAC_DE_MAINE_CAMPING,,1
CAMPBO-E,13123,"CAMPING DE BOUCHEMAINE",,47.419260,-0.611591,,,0,zone_CAMPING_DE_BOUCHEMAINE,,1
CAMPBOUC,11882,"CAMPING DE BOUCHEMAINE",,47.419394,-0.611424,,,0,zone_CAMPING_DE_BOUCHEMAINE,,1
CAMPJU-E,996,"CAMPING DE JUIGNE",,47.537071,-0.616874,,,0,zone_CAMPING_DE_JUIGNE,,0
CAMPJUIG,7458,"CAMPING DE JUIGNE",,47.537540,-0.616871,,,0,zone_CAMPING_DE_JUIGNE,,0
CAMUS.05,9583,"CAMUS",,47.485319,-0.575762,,,0,zone_CAMUS,,1
CAMUS5-E,20823,"CAMUS",,47.484976,-0.575802,,,0,zone_CAMUS,,1
CANTCH-E,833087,"CHAMP FLEURI CANTENAY",,47.537268,-0.571110,,,0,zone_CHAMP_FLEURI_CANTENAY,,0
CANTCHFL,735372,"CHAMP FLEURI CANTENAY",,47.537208,-0.571160,,,0,zone_CHAMP_FLEURI_CANTENAY,,0
CANTPA-E,936930,"PATIS",,47.540370,-0.582370,,,0,zone_PATIS,,0
CANTPAT,800212,"PATIS",,47.540480,-0.582380,,,0,zone_PATIS,,0
CAPU8-C,32069,"CAPUCINS",,47.487421,-0.554794,,,0,zone_CAPUCINS,,1
CAPU8-E,21219,"CAPUCINS",,47.487450,-0.554523,,,0,zone_CAPUCINS,,1
CARCIT-E,8361,"CARREFOUR ST SERGE",,47.487624,-0.543170,,,0,zone_CARREFOUR_ST_SERGE,,1
CARCITR,784,"CARREFOUR ST SERGE",,47.487173,-0.543673,,,0,zone_CARREFOUR_ST_SERGE,,1
CARLIN-E,21252,"LINNE",,47.446490,-0.547685,,,0,zone_LINNE,,0
CARLINNE,20077,"LINNE",,47.446569,-0.547658,,,0,zone_LINNE,,0
CARMET,9979,"JEAN CARMET",,47.400384,-0.543464,,,0,zone_JEAN_CARMET,,1
CARMET-E,16860,"JEAN CARMET",,47.400458,-0.543120,,,0,zone_JEAN_CARMET,,1
CARREA-E,19826,"CARREAUX",,47.511975,-0.471414,,,0,zone_CARREAUX,,0
CARREAUX,25276,"CARREAUX",,47.512568,-0.471937,,,0,zone_CARREAUX,,0
CARRF5B,9318,"CARREFOUR ST SERGE",,47.488011,-0.542522,,,0,zone_CARREFOUR_ST_SERGE,,1
CARRSS-E,6897,"CARREFOUR ST SERGE",,47.488151,-0.543464,,,0,zone_CARREFOUR_ST_SERGE,,1
CCADEA,5701,"CROIX CADEAU",,47.519944,-0.609419,,,0,zone_CROIX_CADEAU,,0
CCADEA-E,3576,"CROIX CADEAU",,47.520195,-0.609610,,,0,zone_CROIX_CADEAU,,1
CCADE-IR,669054,"CROIX CADEAU",,47.517638,-0.608085,,,0,zone_CROIX_CADEAU,,1
CCBGPAI,953694,"BOURG DE PAILLE",,47.473272,-0.623250,,,0,zone_BOURG_DE_PAILLE,,1
CCHEMI-E,30919,"CROIX DE CHEMINEE",,47.467562,-0.502891,,,0,zone_CROIX_DE_CHEMINEE,,0
CCHEMINE,30005,"CROIX DE CHEMINEE",,47.467733,-0.503220,,,0,zone_CROIX_DE_CHEMINEE,,0
CCICHA-E,24375,"CCI",,47.468281,-0.557703,,,0,zone_CCI,,1
CCOMME-E,10530,"CENTRE COMMERCIAL",,47.437785,-0.526753,,,0,zone_CENTRE_COMMERCIAL,,1
CCOMMERC,3146,"CENTRE COMMERCIAL",,47.437865,-0.527010,,,0,zone_CENTRE_COMMERCIAL,,1
CEEQUE-E,15981,"CENTRE EQUESTRE",,47.459573,-0.484585,,,0,zone_CENTRE_EQUESTRE,,1
CEEQUEST,14512,"CENTRE EQUESTRE",,47.459563,-0.484681,,,0,zone_CENTRE_EQUESTRE,,1
CESARG-E,23705,"GEOFFRAY",,47.458454,-0.545676,,,0,zone_GEOFFRAY,,1
CESARGEO,66,"GEOFFRAY",,47.458634,-0.545982,,,0,zone_GEOFFRAY,,1
CEZAN-E,16647,"CEZANNE",,47.469643,-0.491965,,,0,zone_CEZANNE,,1
CEZANNE,20935,"CEZANNE",,47.469802,-0.491887,,,0,zone_CEZANNE,,1
CFPA,13734,"AFPA",,47.471531,-0.523351,,,0,zone_AFPA,,1
CFPA-E,14322,"AFPA",,47.471498,-0.522738,,,0,zone_AFPA,,1
CHABLA-E,10390,"CHAMPS BLANCS",,47.517352,-0.475221,,,0,zone_CHAMPS_BLANCS,,1
CHABLANC,9247,"CHAMPS BLANCS",,47.517246,-0.475226,,,0,zone_CHAMPS_BLANCS,,1
CHACOMME,27218,"CCI",,47.468216,-0.557753,,,0,zone_CCI,,1
CHADL-E,8514,"CHAMPDOLLANT",,47.556403,-0.561453,,,0,zone_CHAMPDOLLANT,,0
CHAERI-E,8276,"CHATEAU ERIGNE",,47.406367,-0.525946,,,0,zone_CHATEAU_ERIGNE,,0
CHAERIGN,7264,"CHATEAU ERIGNE",,47.406508,-0.525782,,,0,zone_CHATEAU_ERIGNE,,0
CHAGALL,409509,"CHAGALL",,47.560170,-0.677000,,,0,zone_CHAGALL,,0
CHALOU-E,16972,"CHALOUERE",,47.481957,-0.536081,,,0,zone_CHALOUERE,,1
CHALOUER,16319,"CHALOUERE",,47.481352,-0.536677,,,0,zone_CHALOUERE,,1
CHAMBO-E,22463,"CHAMPBOUREAU",,47.396629,-0.636675,,,0,zone_CHAMPBOUREAU,,0
CHAMBOUR,5924,"CHAMPBOUREAU",,47.396576,-0.636720,,,0,zone_CHAMPBOUREAU,,0
CHAMF-E,48621,"CHAMPFLEUR",,47.482696,-0.503809,,,0,zone_CHAMPFLEUR,,0
CHAMFL,15711,"CHAMPFLEUR",,47.483016,-0.504353,,,0,zone_CHAMPFLEUR,,0
CHAMPD,30452,"CHAMPDOLLANT",,47.556723,-0.561380,,,0,zone_CHAMPDOLLANT,,0
CHANSONN,654132,"ROUTE DE LA CHANSONNIERE",,47.583720,-0.483650,,,0,zone_ROUTE_DE_LA_CHANSONNIERE,,0
CHANT AR,769363,"BOUCHEMAINE CHANTOURTEAU",,47.406133,-0.623156,,,0,zone_BOUCHEMAINE_CHANTOURTEAU,,0
CHANT-AR,21417,"BOUCHEMAINE CHANTOURTEAU",,47.406133,-0.623156,,,0,zone_BOUCHEMAINE_CHANTOURTEAU,,0
CHANTE-E,25568,"CHANTERIE",,47.470970,-0.628143,,,0,zone_CHANTERIE,,0
CHANTERI,24849,"CHANTERIE",,47.470867,-0.628029,,,0,zone_CHANTERIE,,0
CHANTOUR,20438,"BOUCHEMAINE CHANTOURTEAU",,47.406133,-0.623156,,,0,zone_BOUCHEMAINE_CHANTOURTEAU,,0
CHANZY,13887,"CHANZY",,47.460136,-0.557471,,,0,zone_CHANZY,,1
CHANZY-E,32089,"CHANZY",,47.460073,-0.557697,,,0,zone_CHANZY,,1
CHAPEL-E,5633,"CHAPELLES",,47.468666,-0.383366,,,0,zone_CHAPELLES,,0
CHAPELLE,21227,"CHAPELLES",,47.468736,-0.382797,,,0,zone_CHAPELLES,,0
CHARNA-E,5036,"CHARNASSERIE",,47.491908,-0.556628,,,0,zone_CHARNASSERIE,,1
CHARNASS,30008,"CHARNASSERIE",,47.491546,-0.557794,,,0,zone_CHARNASSERIE,,1
CHARRUAU,994566,"CHARRUAU",,47.373010,-0.509960,,,0,zone_CHARRUAU,,0
CHARRU-E,758914,"CHARRUAU",,47.372790,-0.509920,,,0,zone_CHARRUAU,,0
CHATA-E,657686,"CHATAIGNIER",,47.545817,-0.649875,,,0,zone_CHATAIGNIER,,0
CHATAI,372480,"CHATAIGNIER",,47.545750,-0.650030,,,0,zone_CHATAIGNIER,,0
CHATELAI,23220,"CHATELAIN",,47.482834,-0.514707,,,0,zone_CHATELAIN,,0
CHATEL-E,24167,"CHATELAIN",,47.483181,-0.514215,,,0,zone_CHATELAIN,,1
CHATENAY,2146,"CHATENAY",,47.482725,-0.521165,,,0,zone_CHATENAY,,1
CHATEN-E,2767,"CHATENAY",,47.482547,-0.521179,,,0,zone_CHATENAY,,1
CHAU-E,268887,"LA CHAUVELAIE",,47.436466,-0.584372,,,0,zone_LA_CHAUVELAIE,,0
CHAUMI-E,12609,"CHAUMIERES",,47.524435,-0.523328,,,0,zone_CHAUMIERES,,1
CHAUMIER,12643,"CHAUMIERES",,47.524071,-0.523245,,,0,zone_CHAUMIERES,,1
CHAUVE,60539,"LA CHAUVELAIE",,47.436497,-0.584315,,,0,zone_LA_CHAUVELAIE,,0
CHBBEI-E,22139,"CHAPELLE BELLE BEILLE",,47.475311,-0.586044,,,0,zone_CHAPELLE_BELLE_BEILLE,,1
CHBBEILL,21074,"CHAPELLE BELLE BEILLE",,47.475803,-0.586138,,,0,zone_CHAPELLE_BELLE_BEILLE,,1
CHDARR,39215,"CHATEAU",,47.468722,-0.559147,,,0,zone_CHATEAU,,1
CHDARR-E,31053,"CHATEAU",,47.469278,-0.560145,,,0,zone_CHATEAU,,1
CHEMARDE,692812,"AVRILLE - ARDENNE",,47.512422,-0.596364,,,0,zone_AVRILLE_-_ARDENNE,,0
CHEMAR-E,792762,"AVRILLE - ARDENNE",,47.512254,-0.596057,,,0,zone_AVRILLE_-_ARDENNE,,0
CHEMIPRE,433167,"CHEMIN DU PRE",,47.467280,-0.635650,,,0,zone_CHEMIN_DU_PRE,,0
CHEMON-E,395248,"CHEMIN DE MONGAZON",,47.484468,-0.485011,,,0,zone_CHEMIN_DE_MONGAZON,,0
CHEMONGA,921683,"CHEMIN DE MONGAZON",,47.484748,-0.484854,,,0,zone_CHEMIN_DE_MONGAZON,,0
CHENAIE,543770,"LA CHENAIE",,47.547880,-0.474420,,,0,zone_LA_CHENAIE,,0
CHENAI-E,145360,"LA CHENAIE",,47.548030,-0.474520,,,0,zone_LA_CHENAIE,,0
CHENERON,980954,"CHENE ROND",,47.395750,-0.536650,,,0,zone_CHENE_ROND,,0
CHENOI-E,903926,"CHEMIN NOIR",,47.529532,-0.590994,,,0,zone_CHEMIN_NOIR,,1
CHENOIR,74282,"CHEMIN NOIR",,47.529466,-0.590744,,,0,zone_CHEMIN_NOIR,,1
CHEPRE-E,667046,"CHEMIN DU PRE",,47.467220,-0.635500,,,0,zone_CHEMIN_DU_PRE,,0
CHESNA-E,28622,"LA CHESNAIE",,47.437076,-0.523946,,,0,zone_LA_CHESNAIE,,1
CHESNAIE,21405,"LA CHESNAIE",,47.437188,-0.524338,,,0,zone_LA_CHESNAIE,,1
CHEVA-E,28793,"CHEVALLERIE",,47.554706,-0.660980,,,0,zone_CHEVALLERIE,,0
CHEVAL,3108,"CHEVALLERIE",,47.553912,-0.659666,,,0,zone_CHEVALLERIE,,0
CHEVRI-E,7832,"CHEVRIERE",,47.423934,-0.609201,,,0,zone_CHEVRIERE,,0
CHEVRIER,7016,"CHEVRIERE",,47.423904,-0.609147,,,0,zone_CHEVRIERE,,0
CHEVRO-E,440202,"LYCEE CHEVROLLIER",,47.454385,-0.556960,,,0,zone_LYCEE_CHEVROLLIER,,0
CHEVROLL,858266,"LYCEE CHEVROLLIER",,47.454563,-0.556704,,,0,zone_LYCEE_CHEVROLLIER,,0
CHMART-E,2510,"CHAMP DES MARTYRS",,47.490108,-0.582648,,,0,zone_CHAMP_DES_MARTYRS,,1
CHMARTYR,1237,"CHAMP DES MARTYRS",,47.489835,-0.583017,,,0,zone_CHAMP_DES_MARTYRS,,1
CHOUTEAU,22022,"CHOUTEAU",,47.446223,-0.496947,,,0,zone_CHOUTEAU,,1
CHOUTE-E,22740,"CHOUTEAU",,47.446162,-0.496815,,,0,zone_CHOUTEAU,,1
CHPEGU-E,362903,"CHARLES PEGUY",,47.530000,-0.620318,,,0,zone_CHARLES_PEGUY,,1
CHPEGUY,855516,"CHARLES PEGUY",,47.529909,-0.620326,,,0,zone_CHARLES_PEGUY,,1
CHVERT,23049,"CHENE VERT",,47.470251,-0.514956,,,0,zone_CHENE_VERT,,1
CHVERT-E,24160,"CHENE VERT",,47.470438,-0.516545,,,0,zone_CHENE_VERT,,1
CIAVRI-E,25684,"CIMETIERE D'AVRILLE",,47.506595,-0.590449,,,0,zone_CIMETIERE_D'AVRILLE,,1
CIAVRILL,24835,"CIMETIERE D'AVRILLE",,47.506368,-0.591050,,,0,zone_CIMETIERE_D'AVRILLE,,1
CIEST.-E,23398,"FRATELLINI",,47.471541,-0.530892,,,0,zone_FRATELLINI,,0
CIMEPO-E,26172,"CIMETIERE DES PONTS DE CE",,47.434365,-0.530094,,,0,zone_CIMETIERE_DES_PONTS_DE_CE,,1
CIMEPONT,25421,"CIMETIERE DES PONTS DE CE",,47.434329,-0.529839,,,0,zone_CIMETIERE_DES_PONTS_DE_CE,,1
CIMETI-E,7431,"CIMETIERE DE L'EST",,47.471289,-0.527748,,,0,zone_CIMETIERE_DE_L'EST,,1
CIMETIER,6354,"CIMETIERE DE L'EST",,47.471328,-0.527746,,,0,zone_CIMETIERE_DE_L'EST,,1
CIMETR-E,32029,"CIMETIERE DE TRELAZE",,47.446178,-0.462376,,,0,zone_CIMETIERE_DE_TRELAZE,,1
CIMTRELA,31082,"CIMETIERE DE TRELAZE",,47.446408,-0.462475,,,0,zone_CIMETIERE_DE_TRELAZE,,1
CIOUES-E,18204,"CIMETIERE DE L'OUEST",,47.479301,-0.570836,,,0,zone_CIMETIERE_DE_L'OUEST,,1
CIOUEST,16897,"CIMETIERE DE L'OUEST",,47.478558,-0.569693,,,0,zone_CIMETIERE_DE_L'OUEST,,1
CITESO-A,68887,"MARCHE MONPLAISIR",,47.488419,-0.535882,,,0,zone_MARCHE_MONPLAISIR,,1
CITESO-E,3002,"LA CITE CHABADA",,47.488419,-0.535882,,,0,zone_LA_CITE_CHABADA,,1
CITESOLI,61161,"LA CITE CHABADA",,47.488385,-0.536164,,,0,zone_LA_CITE_CHABADA,,1
CITEUN-E,27788,"CITE UNIVERSITAIRE",,47.478671,-0.598192,,,0,zone_CITE_UNIVERSITAIRE,,1
CITEUNIV,30394,"CITE UNIVERSITAIRE",,47.478912,-0.597917,,,0,zone_CITE_UNIVERSITAIRE,,1
CITRON-E,4467,"CITRONNELLE",,47.479343,-0.633733,,,0,zone_CITRONNELLE,,1
CITRONNL,1586,"CITRONNELLE",,47.479429,-0.634010,,,0,zone_CITRONNELLE,,1
CLAIE,3838,"CLAIE",,47.460731,-0.627212,,,0,zone_CLAIE,,0
CLAIE -E,4327,"CLAIE",,47.460740,-0.627047,,,0,zone_CLAIE,,0
CLART -E,32378,"CLARTE",,47.454026,-0.481238,,,0,zone_CLARTE,,0
CLARTE,31594,"CLARTE",,47.454074,-0.481283,,,0,zone_CLARTE,,0
CLAUDE-E,14882,"CLAUDEL",,47.449935,-0.566791,,,0,zone_CLAUDEL,,1
CLAUDEL,14,"CLAUDEL",,47.449570,-0.566175,,,0,zone_CLAUDEL,,1
CLAVERIE,32135,"CLAVERIE",,47.486645,-0.504491,,,0,zone_CLAVERIE,,1
CLEMEG-E,24799,"EGLISE DE SAINT CLEMENT",,47.524848,-0.745255,,,0,zone_EGLISE_DE_SAINT_CLEMENT,,0
CLEMEGLI,6423,"EGLISE DE SAINT CLEMENT",,47.524846,-0.745598,,,0,zone_EGLISE_DE_SAINT_CLEMENT,,0
CLEMOI-E,26438,"CONSTANT LEMOINE",,47.471807,-0.542270,,,0,zone_CONSTANT_LEMOINE,,1
CLEMOINE,54191,"CONSTANT LEMOINE",,47.471974,-0.542067,,,0,zone_CONSTANT_LEMOINE,,1
CLIANJ-E,11590,"PABLO NERUDA",,47.445252,-0.541133,,,0,zone_PABLO_NERUDA,,0
CLINAN-E,508501,"CLINIQUE DE L'ANJOU",,47.444483,-0.538795,,,0,zone_CLINIQUE_DE_L'ANJOU,,1
CLINANJO,21645,"CLINIQUE DE L'ANJOU",,47.444392,-0.539172,,,0,zone_CLINIQUE_DE_L'ANJOU,,1
CLINIQ-E,27786,"CLINIQUE SAINT DIDIER",,47.485319,-0.587432,,,0,zone_CLINIQUE_SAINT_DIDIER,,1
CLINIQUE,26512,"CLINIQUE SAINT DIDIER",,47.485187,-0.587042,,,0,zone_CLINIQUE_SAINT_DIDIER,,1
CLODOR-E,17722,"CLOS DOREAU",,47.496327,-0.425182,,,0,zone_CLOS_DOREAU,,0
CLODOREA,31214,"CLOS DOREAU",,47.496211,-0.425173,,,0,zone_CLOS_DOREAU,,0
CLOS9-E,19966,"CLOS NEUF",,47.422480,-0.565502,,,0,zone_CLOS_NEUF,,1
CLOSNEUF,23457,"CLOS NEUF",,47.422458,-0.565427,,,0,zone_CLOS_NEUF,,1
CLOSVI-E,20765,"CLOS DE LA VIGNE",,47.441623,-0.611237,,,0,zone_CLOS_DE_LA_VIGNE,,1
CLOSVIGN,17761,"CLOS DE LA VIGNE",,47.441562,-0.611197,,,0,zone_CLOS_DE_LA_VIGNE,,1
CLOTEA-E,834642,"CLOTEAU",,47.507595,-0.408536,,,0,zone_CLOTEAU,,0
CLOTEAU,466331,"CLOTEAU",,47.507595,-0.408536,,,0,zone_CLOTEAU,,0
CLOUET,17775,"CLOUET",,47.480267,-0.566179,,,0,zone_CLOUET,,1
CLOUET-E,6874,"CLOUET",,47.480613,-0.566402,,,0,zone_CLOUET,,1
CNFPT,22225,"CNFPT",,47.472406,-0.599811,,,0,zone_CNFPT,,1
CNFPT-E,32156,"CNFPT",,47.472274,-0.600056,,,0,zone_CNFPT,,1
COINTR-E,6267,"COINTREAU",,47.476467,-0.507384,,,0,zone_COINTREAU,,1
COINTREA,9457,"COINTREAU",,47.476349,-0.507599,,,0,zone_COINTREAU,,1
COLOMB,74257,"COLOMBIER",,47.482426,-0.490574,,,0,zone_COLOMBIER,,1
COLOM-E,64617,"COLOMBIER",,47.482568,-0.490415,,,0,zone_COLOMBIER,,1
COLTRIAR,23328,"COLTRIE",,47.485315,-0.675876,,,0,zone_COLTRIE,,0
COLTRIE,31143,"COLTRIE",,47.485475,-0.675922,,,0,zone_COLTRIE,,0
CORMI-E,8668,"CORMIERS",,47.458076,-0.515358,,,0,zone_CORMIERS,,1
CORMIER,24903,"CORMIERS",,47.458331,-0.515928,,,0,zone_CORMIERS,,1
CORNBA-E,932372,"CORNE LA BASCULE",,47.472059,-0.339860,,,0,zone_CORNE_LA_BASCULE,,0
CORNBASC,78942,"CORNE LA BASCULE",,47.471606,-0.341063,,,0,zone_CORNE_LA_BASCULE,,0
CORNCR-E,434360,"CROIX VERTE",,47.474017,-0.354801,,,0,zone_CROIX_VERTE,,0
CORNCROI,650527,"CORNE LA CROIX VERTE",,47.474128,-0.354755,,,0,zone_CORNE_LA_CROIX_VERTE,,0
CORNMA-E,575617,"CORNE MAIRIE",,47.470938,-0.350502,,,0,zone_CORNE_MAIRIE,,0
CORNMAIR,544320,"CORNE MAIRIE",,47.470972,-0.350576,,,0,zone_CORNÉ_MAIRIE,,0
CORZE,21390,"CORZE",,47.556506,-0.389434,,,0,zone_CORZE,,0
COSSE,12393,"COSSE",,47.438312,-0.553244,,,0,zone_COSSE,,0
COSSE-E,7690,"COSSE",,47.438225,-0.553357,,,0,zone_COSSE,,0
COSSIERE,976646,"COSSIERES",,47.525660,-0.447870,,,0,zone_COSSIERES,,0
COTTAGE,4531,"COTTAGE",,47.494801,-0.515280,,,0,zone_COTTAGE,,1
COTTAG-E,5184,"COTTAGE",,47.494637,-0.515243,,,0,zone_COTTAGE,,1
COUBER-E,70,"JEAN BOUIN SCOLAIRE",,47.458925,-0.532817,,,0,zone_JEAN_BOUIN_SCOLAIRE,,0
COUBERTI,6822,"JEAN BOUIN SCOLAIRE",,47.459170,-0.532946,,,0,zone_JEAN_BOUIN_SCOLAIRE,,0
COUREA-E,497939,"COUREAU",,47.420357,-0.368639,,,0,zone_COUREAU,,0
COUREAU,617489,"COUREAU",,47.420357,-0.368639,,,0,zone_COUREAU,,0
COUTARDI,310689,"COUTARDIERE",,47.469475,-0.407551,,,0,zone_COUTARDIERE,,0
COUTAR-E,268168,"COUTARDIERE",,47.466344,-0.408136,,,0,zone_COUTARDIERE,,0
CRBEAU,21760,"CROIX DE BEAUVAIS",,47.611828,-0.585292,,,0,zone_CROIX_DE_BEAUVAIS,,0
CRBEAU-E,12387,"CROIX DE BEAUVAIS",,47.611938,-0.585146,,,0,zone_CROIX_DE_BEAUVAIS,,0
CRBLANCH,20575,"CROIX BLANCHE",,47.480846,-0.517169,,,0,zone_CROIX_BLANCHE,,0
CRBLAN-E,21587,"CROIX BLANCHE",,47.480772,-0.517185,,,0,zone_CROIX_BLANCHE,,0
CRESSO-E,191441,"CRESSONNIERE",,47.474200,-0.492273,,,0,zone_CRESSONNIERE,,0
CRESSONN,407603,"CRESSONNIERE",,47.473480,-0.493030,,,0,zone_CRESSONNIERE,,0
CRETAUDI,809228,"CRETAUDIERE",,47.475655,-0.366308,,,0,zone_CRETAUDIÈRE,,0
CRETAU-E,747849,"CRETAUDIERE",,47.475673,-0.366332,,,0,zone_CRETAUDIERE,,0
CRFRUX,29507,"CROIX DES FRUX",,47.503266,-0.690939,,,0,zone_CROIX_DES_FRUX,,0
CRFRUX-E,10392,"CROIX DES FRUX",,47.503317,-0.690981,,,0,zone_CROIX_DES_FRUX,,0
CROISE-E,29354,"CROISETTE",,47.450910,-0.600360,,,0,zone_CROISETTE,,1
CROISETT,28700,"CROISETTE",,47.450950,-0.600174,,,0,zone_CROISETTE,,1
CROIXV-E,28430,"ROUTE DE BOUCHEMAINE",,47.444949,-0.577238,,,0,zone_ROUTE_DE_BOUCHEMAINE,,0
CROIXVER,27646,"ROUTE DE BOUCHEMAINE",,47.444922,-0.577255,,,0,zone_ROUTE_DE_BOUCHEMAINE,,0
CSARTHE,114,"CROIX DE SARTHE",,47.539976,-0.570308,,,0,zone_CROIX_DE_SARTHE,,0
CSARTH-E,2380,"CROIX DE SARTHE",,47.540082,-0.569944,,,0,zone_CROIX_DE_SARTHE,,0
CTRETR-E,6456,"CENTRE DE TRI",,47.452492,-0.570580,,,0,zone_CENTRE_DE_TRI,,1
CTRETRI,2211,"CENTRE DE TRI",,47.452342,-0.570572,,,0,zone_CENTRE_DE_TRI,,1
DAGUCH-E,539974,"DAGUENIERE LE CHENE",,47.420136,-0.445447,,,0,zone_DAGUENIERE_LE_CHENE,,0
DAGUCHEN,564365,"DAGUENIERE LE CHENE",,47.420266,-0.446056,,,0,zone_DAGUENIERE_LE_CHENE,,0
DAGUEG-E,732652,"DAGUENIERE PLACE DE L'EGLISE",,47.419345,-0.436856,,,0,zone_DAGUENIERE_PLACE_DE_L'EGLISE,,0
DAGUEGLI,114161,"DAGUENIERE PLACE DE L'EGLISE",,47.419372,-0.436588,,,0,zone_DAGUENIERE_PLACE_DE_L'EGLISE,,0
DAGUER-E,8833,"DOJO DAGUERRE",,47.446597,-0.506665,,,0,zone_DOJO_DAGUERRE,,0
DAGUERRE,2483,"DOJO DAGUERRE",,47.446546,-0.506425,,,0,zone_DOJO_DAGUERRE,,0
DAGUVA-E,863802,"DAGUENIERE VAL D'AUTHION",,47.419330,-0.428153,,,0,zone_DAGUENIERE_VAL_D'AUTHION,,0
DAGUVALA,929816,"DAGUENIERE VAL D'AUTHION",,47.419323,-0.428311,,,0,zone_DAGUENIERE_VAL_D'AUTHION,,0
DANEMA,11354,"DANEMARK",,47.527782,-0.597565,,,0,zone_DANEMARK,,1
DANEMA-E,5563,"DANEMARK",,47.527793,-0.597878,,,0,zone_DANEMARK,,1
DANGELIN,79140,"DANIEL GELIN",,47.445113,-0.527000,,,0,zone_DANIEL_GELIN,,1
DARWIN,13304,"DARWIN",,47.473847,-0.604187,,,0,zone_DARWIN,,0
DARWIN-E,12749,"DARWIN",,47.474248,-0.605258,,,0,zone_DARWIN,,0
DAUTEL,22320,"DAUTEL",,47.442747,-0.483466,,,0,zone_DAUTEL,,0
DAUTEL-E,26667,"DAUTEL",,47.442928,-0.483410,,,0,zone_DAUTEL,,0
DAVIERES,463464,"DAVIERES",,47.583185,-0.477925,,,0,zone_DAVIERES,,0
DEBEAU-E,9943,"DE BEAUVOIR",,47.529030,-0.614722,,,0,zone_DE_BEAUVOIR,,0
DEBEAUVO,20135,"DE BEAUVOIR",,47.528983,-0.614636,,,0,zone_DE_BEAUVOIR,,0
DEBU22-E,12625,"DEBUSSY",,47.487465,-0.515732,,,0,zone_DEBUSSY,,0
DEBU31-E,9638,"COLLEGE DEBUSSY",,47.488392,-0.516098,,,0,zone_COLLEGE_DEBUSSY,,0
DEBUSS22,13474,"DEBUSSY",,47.487607,-0.515793,,,0,zone_DEBUSSY,,0
DEBUSS-E,612,"DEBUSSY",,47.488392,-0.515878,,,0,zone_DEBUSSY,,0
DEBUSSY,32335,"DEBUSSY",,47.488282,-0.516091,,,0,zone_DEBUSSY,,0
DEGAUL-E,17571,"DE GAULLE",,47.453201,-0.478201,,,0,zone_DE_GAULLE,,0
DEGAULLE,30690,"DE GAULLE",,47.453267,-0.478271,,,0,zone_DE_GAULLE,,0
DELACR-E,3905,"DELACROIX",,47.454914,-0.528782,,,0,zone_DELACROIX,,1
DELACROI,5132,"DELACROIX",,47.454884,-0.528664,,,0,zone_DELACROIX,,1
DELATA-E,29323,"DE LATTRE",,47.453201,-0.541338,,,0,zone_DE_LATTRE,,1
DELATR-E,25487,"DE LATTRE",,47.452366,-0.541869,,,0,zone_DE_LATTRE,,1
DELATTAS,27760,"DE LATTRE",,47.453345,-0.541233,,,0,zone_DE_LATTRE,,1
DELATTRE,10046,"DE LATTRE",,47.452581,-0.541637,,,0,zone_DE_LATTRE,,1
DELESC-E,22260,"DELESCLUZE",,47.465928,-0.605036,,,0,zone_DELESCLUZE,,1
DELESCL,27348,"DELESCLUZE",,47.466112,-0.604895,,,0,zone_DELESCLUZE,,1
DESCAZ-E,25148,"DESCAZEAUX",,47.476784,-0.566184,,,0,zone_DESCAZEAUX,,1
DESCAZEA,5599,"DESCAZEAUX",,47.477401,-0.565924,,,0,zone_DESCAZEAUX,,1
DESER-E,60376,"DE SERRE",,47.477741,-0.614790,,,0,zone_DE_SERRE,,0
DESERRE,25513,"DE SERRE",,47.477820,-0.615302,,,0,zone_DE_SERRE,,0
DESJARDI,18446,"DESJARDINS",,47.477925,-0.530249,,,0,zone_DESJARDINS,,1
DESJAR-E,8104,"DESJARDINS",,47.477897,-0.530162,,,0,zone_DESJARDINS,,1
DESMAZ,15401,"DESMAZIERES",,47.462535,-0.534564,,,0,zone_DESMAZIERES,,1
DESMAZ-E,15428,"DESMAZIERES",,47.462652,-0.534966,,,0,zone_DESMAZIERES,,1
DEUVAL,17151,"DEUX VALLEES",,47.567800,-0.499660,,,0,zone_DEUX_VALLEES,,0
DEUXCR,12239,"DAGUENET",,47.474815,-0.528440,,,0,zone_DAGUENET,,1
DEUXCR-E,19319,"DAGUENET",,47.474789,-0.527974,,,0,zone_DAGUENET,,1
DEZIE AR,19310,"AVRILLE ADEZIERE",,47.504929,-0.604709,,,0,zone_AVRILLE_ADEZIERE,,1
DGELIN-E,81163,"DANIEL GELIN",,47.445148,-0.527060,,,0,zone_DANIEL_GELIN,,1
DIONNEAU,28948,"DIONNEAU",,47.438847,-0.530022,,,0,zone_DIONNEAU,,1
DIONNE-E,9126,"DIONNEAU",,47.438777,-0.530158,,,0,zone_DIONNEAU,,1
DIONNI-E,28803,"DIONNIERE",,47.543669,-0.485098,,,0,zone_DIONNIERE,,0
DIONNIER,4977,"DIONNIERE",,47.543661,-0.485086,,,0,zone_DIONNIERE,,0
DIX8JU-E,22297,"18 JUIN MONTREUIL",,47.529604,-0.618096,,,0,zone_18_JUIN_MONTREUIL,,0
DIX8JUI,2997,"18 JUIN MONTREUIL",,47.529575,-0.618126,,,0,zone_18_JUIN_MONTREUIL,,0
DOLANTIN,225971,"DOLANTINES",,47.527920,-0.444950,,,0,zone_DOLANTINES,,0
DOMCHENE,957401,"DOMAINE DES CHENES",,47.559040,-0.673290,,,0,zone_DOMAINE_DES_CHENES,,0
DOMETA-E,21363,"ROUTE DE L'ETANG",,47.507910,-0.607230,,,0,zone_ROUTE_DE_L'ETANG,,0
DOMVAL,15402,"DOMAINE DU VAL",,47.537087,-0.625086,,,0,zone_DOMAINE_DU_VAL,,1
DOMVAL-E,366109,"DOMAINE DU VAL",,47.536794,-0.624949,,,0,zone_DOMAINE_DU_VAL,,0
DOMVATER,266184,"DOMAINE DU VAL",,47.536650,-0.624855,,,0,zone_DOMAINE_DU_VAL,,1
DOUBLO-E,692318,"LA DOUBLONNIERE",,47.403651,-0.668944,,,0,zone_LA_DOUBLONNIERE,,0
DOUBLONI,448269,"LA DOUBLONNIERE",,47.403651,-0.668944,,,0,zone_LA_DOUBLONNIERE,,0
DOYENNE,24995,"DOYENNE",,47.490575,-0.532547,,,0,zone_DOYENNE,,1
DOYENN-E,10951,"DOYENNE",,47.490644,-0.532231,,,0,zone_DOYENNE,,0
DSBA-ENT,11739,"ZI EST",,47.475307,-0.495663,,,0,zone_ZI_EST,,1
DSBAR-CV,2951,"ZI EST",,47.475292,-0.495601,,,0,zone_ZI_EST,,1
DSCASUB,661157,"DESCAZEAUX SUB",,47.476940,-0.567432,,,0,zone_DESCAZEAUX_SUB,,1
DSCAZEAU,24278,"DESCAZEAUX",,47.476537,-0.566989,,,0,zone_DESCAZEAUX,,1
DSCAZE-E,25257,"DESCAZEAUX",,47.476213,-0.565947,,,0,zone_DESCAZEAUX,,1
DUBE,11379,"DUBE",,47.415846,-0.523157,,,0,zone_DUBE,,1
DUBE  -E,12097,"DUBE",,47.415438,-0.523175,,,0,zone_DUBE,,1
DUBELLAY,3061,"DU BELLAY",,47.492492,-0.513319,,,0,zone_DU_BELLAY,,0
DUBELL-E,3812,"DU BELLAY",,47.492172,-0.513279,,,0,zone_DU_BELLAY,,0
DUMESN-E,5561,"DUMESNIL",,47.473810,-0.566978,,,0,zone_DUMESNIL,,1
DUMESNIL,4581,"DUMESNIL",,47.473701,-0.567262,,,0,zone_DUMESNIL,,1
DUMNACUS,23298,"DUMNACUS",,47.486323,-0.592092,,,0,zone_DUMNACUS,,0
DUNAN,19081,"DUNANT",,47.483507,-0.525547,,,0,zone_DUNANT,,1
DUNAN-E,14642,"DUNANT",,47.483405,-0.525612,,,0,zone_DUNANT,,1
DUREL1-E,749082,"DURELLERIES 1",,47.428932,-0.641213,,,0,zone_DURELLERIES_1,,0
DUREL2-E,631634,"DURELLERIES 2",,47.431103,-0.641780,,,0,zone_DURELLERIES_2,,0
DURELLE1,530721,"DURELLERIES 1",,47.428932,-0.641213,,,0,zone_DURELLERIES_1,,0
DURELLE2,489663,"DURELLERIES 2",,47.431103,-0.641780,,,0,zone_DURELLERIES_2,,0
DURVIL-E,22678,"DUMONT D'URVILLE",,47.445061,-0.557218,,,0,zone_DUMONT_D'URVILLE,,1
DURVILLE,28495,"DUMONT D'URVILLE",,47.445181,-0.557190,,,0,zone_DUMONT_D'URVILLE,,1
EBEAUP-E,9811,"EBEAUPIN",,47.464419,-0.624819,,,0,zone_EBEAUPIN,,0
EBEAUPIN,22853,"EBEAUPIN",,47.464363,-0.624752,,,0,zone_EBEAUPIN,,0
EBLE,18451,"EBLE",,47.455299,-0.566311,,,0,zone_EBLE,,1
EBLE  -E,18302,"EBLE",,47.455380,-0.566292,,,0,zone_EBLE,,1
ECHATS,24869,"ECHATS",,47.480699,-0.632024,,,0,zone_ECHATS,,1
ECHATS-E,30592,"ECHATS",,47.481021,-0.631914,,,0,zone_ECHATS,,1
ECHMA-E,30440,"ECHMAN",,47.490220,-0.575652,,,0,zone_ECHMAN,,1
ECHMAN,20511,"ECHMAN",,47.490221,-0.575748,,,0,zone_ECHMAN,,1
ECLATE-E,15952,"ECLATERIES",,47.451149,-0.519916,,,0,zone_ECLATERIES,,1
ECLATERI,28347,"ECLATERIES",,47.451154,-0.519768,,,0,zone_ECLATERIES,,1
ECOANDAR,621938,"ECOLE ANDARD",,47.457396,-0.398637,,,0,zone_ECOLE_ANDARD,,0
ECOTIE-E,24531,"ECOTIERE",,47.364456,-0.504988,,,0,zone_ECOTIERE,,0
ECOTIERE,28731,"ECOTIERE",,47.363934,-0.504602,,,0,zone_ECOTIERE,,0
ECUIL-E,3439,"ECUILLE",,47.616060,-0.562680,,,0,zone_ECUILLE,,0
ECUILL,3505,"ECUILLE",,47.616111,-0.562674,,,0,zone_ECUILLE,,0
EDF,6009,"BERGERIE",,47.487471,-0.471337,,,0,zone_BERGERIE,,0
EDF-E,16211,"BERGERIE",,47.487421,-0.471350,,,0,zone_BERGERIE,,0
EGLTRE-E,1318,"EGLISE DE TRELAZE",,47.445500,-0.464537,,,0,zone_EGLISE_DE_TRELAZE,,1
EGLTRELA,208,"EGLISE DE TRELAZE",,47.445543,-0.464873,,,0,zone_EGLISE_DE_TRELAZE,,1
ELYSEE,18951,"ELYSEE",,47.473583,-0.584609,,,0,zone_ELYSEE,,0
ELYSEE-E,20767,"ELYSEE",,47.473638,-0.584930,,,0,zone_ELYSEE,,0
EMPIRE,15565,"EMPIRE",,47.423144,-0.592888,,,0,zone_EMPIRE,,0
EMPIRE-E,15466,"EMPIRE",,47.422892,-0.593252,,,0,zone_EMPIRE,,0
EPINAY,158422,"L'EPINAY",,47.432610,-0.377319,,,0,zone_L'EPINAY,,0
EPINAY-E,729440,"L'EPINAY",,47.432610,-0.377319,,,0,zone_L'EPINAY,,0
EPIRE,27409,"EPIRE",,47.398530,-0.634584,,,0,zone_EPIRE,,0
EPIRE-E,7152,"EPIRE",,47.398196,-0.634451,,,0,zone_EPIRE,,0
ERIGNE,30529,"ERIGNE",,47.400465,-0.531061,,,0,zone_ERIGNE,,1
ERIGNE-E,31182,"ERIGNE",,47.401424,-0.529747,,,0,zone_ERIGNE,,1
ESA,6717,"ESA",,47.458501,-0.544922,,,0,zone_ESA,,1
ESA-E,19309,"ESA",,47.458950,-0.545318,,,0,zone_ESA,,1
ESATBE-E,611355,"ESAT LES BEJONNIERES",,47.481346,-0.510165,,,0,zone_ESAT_BEJONNIERES,,0
ESATBEJO,241355,"ESAT LES BEJONNIERES",,47.481290,-0.510116,,,0,zone_ESAT_LES_BEJONNIERES,,0
ESCALAV,28477,"ESSCA",,47.477318,-0.598860,,,0,zone_ESSCA,,0
ESNAUD-E,91404,"L'ESNAUDERIE",,47.593100,-0.549630,,,0,zone_L'ESNAUDERIE,,0
ESNAUDER,511998,"L'ESNAUDERIE",,47.593290,-0.549570,,,0,zone_L'ESNAUDERIE,,0
ESPAC AR,9410,"ESPACE ANJOU",,47.468201,-0.526101,,,0,zone_ESPACE_ANJOU,,0
ESPACE5A,8609,"ESPACE ANJOU",,47.467402,-0.520280,,,0,zone_ESPACE_ANJOU,,1
ESPACE5B,6519,"ESPACE ANJOU",,47.467579,-0.520496,,,0,zone_ESPACE_ANJOU,,1
ESPACEAN,18251,"ESPACE ANJOU",,47.468201,-0.526101,,,0,zone_ESPACE_ANJOU,,0
ESPAJEUN,28726,"MAISON DE LA DANSE",,47.488850,-0.584843,,,0,zone_MAISON_DE_LA_DANSE,,1
ESPJEU-E,1080,"MAISON DE LA DANSE",,47.488549,-0.585321,,,0,zone_MAISON_DE_LA_DANSE,,1
ESPLO-E,17768,"ESPACE LONGUENEE",,47.540193,-0.672815,,,0,zone_ESPACE_LONGUENEE,,1
ESP-LON,16227,"ESPACE LONGUENEE",,47.540101,-0.672920,,,0,zone_ESPACE_LONGUENEE,,1
ESPMON-E,34314,"ESPERANTO",,47.529489,-0.603669,,,0,zone_ESPERANTO,,1
ESPMONTR,15922,"ESPERANTO",,47.529476,-0.603652,,,0,zone_ESPERANTO,,1
ESSCA,86,"ESSCA",,47.476769,-0.599228,,,0,zone_ESSCA,,0
ESTAMI-E,673452,"ESTAMINET",,47.565950,-0.503510,,,0,zone_ESTAMINET,,0
ESTAMINE,579551,"ESTAMINET",,47.565708,-0.503868,,,0,zone_ESTAMINET,,0
ETAS,32370,"ETAS",,47.524514,-0.619963,,,0,zone_ETAS,,0
ETAS-E,15715,"ETAS",,47.524514,-0.619963,,,0,zone_ETAS,,0
EUROPE22,23739,"PLACE DE L'EUROPE",,47.487570,-0.526349,,,0,zone_PLACE_DE_L'EUROPE,,0
EVENT AR,7408,"EVENTARD",,47.497058,-0.515130,,,0,zone_EVENTARD,,1
EVENTA T,8776,"EVENTARD",,47.496844,-0.514914,,,0,zone_EVENTARD,,1
FACUL-SS,7400,"FACULTE",,47.479260,-0.550741,,,0,zone_FACULTE,,1
FACULT-E,30202,"FACULTE",,47.479300,-0.550745,,,0,zone_FACULTE,,1
FARCY,29337,"BALZAC",,47.472437,-0.576116,,,0,zone_BALZAC,,0
FARCY-E,1432,"BALZAC",,47.472596,-0.576244,,,0,zone_BALZAC,,0
FENCH-E,955983,"CHAMP FLEURI FENEU",,47.567840,-0.579510,,,0,zone_CHAMP_FLEURI_FENEU,,0
FENCHFL,815465,"CHAMP FLEURI FENEU",,47.567970,-0.579420,,,0,zone_CHAMP_FLEURI_FENEU,,0
FENEU AR,768933,"EGLISE DE FENEU",,47.569600,-0.594373,,,0,zone_EGLISE_DE_FENEU,,0
FENEU ZA,370674,"ZA FENEU ARRIVEE",,47.579177,-0.591380,,,0,zone_ZA_FENEU_ARRIVEE,,0
FENEUBUS,36001,"EGLISE DE FENEU",,47.569600,-0.594373,,,0,zone_EGLISE_DE_FENEU,,1
FFAURE,28159,"FELIX FAURE",,47.485654,-0.547323,,,0,zone_FELIX_FAURE,,0
FFAURE-E,13088,"FELIX FAURE",,47.485494,-0.546913,,,0,zone_FELIX_FAURE,,0
FIEFGENT,22382,"FIEF GENTIL",,47.533239,-0.526401,,,0,zone_FIEF_GENTIL,,0
FIEGEN-E,24053,"FIEF GENTIL",,47.533348,-0.525902,,,0,zone_FIEF_GENTIL,,0
FMEDEC-E,2930,"FACULTE DE MEDECINE",,47.487397,-0.552553,,,0,zone_FACULTE_DE_MEDECINE,,1
FMEDECIN,10330,"FACULTE DE MEDECINE",,47.487221,-0.552311,,,0,zone_FACULTE_DE_MEDECINE,,1
FMITTE-E,8589,"SAINT SERGE UNIVERSITE",,47.476582,-0.551105,,,0,zone_SAINT_SERGE_UNIVERSITE,,1
FMITTERA,6467,"SAINT SERGE UNIVERSITE",,47.476627,-0.551903,,,0,zone_SAINT_SERGE_UNIVERSITE,,1
FO-LOR-R,170,"FOCH MAISON BLEUE",,47.469676,-0.548908,,,0,zone_FOCH_MAISON_BLEUE,,1
FONTAI-E,26615,"LA FONTAINE FENEU",,47.569638,-0.590378,,,0,zone_LA_FONTAINE_FENEU,,0
FONTAINE,15253,"LA FONTAINE FENEU",,47.569642,-0.590497,,,0,zone_LA_FONTAINE_FENEU,,0
FONTVILL,63277,"LA FONTAINE VILLEVEQUE",,47.552087,-0.462222,,,0,zone_LA_FONTAINE_VILLEVEQUE,,1
FORGES,3128,"LES FORGES",,47.386446,-0.645219,,,0,zone_LES_FORGES,,0
FORGES-E,1732,"LES FORGES",,47.386263,-0.645127,,,0,zone_LES_FORGES,,0
FOUDON,534977,"FOUDON",,47.492220,-0.425360,,,0,zone_FOUDON,,0
FOUDON-E,375171,"FOUDON",,47.492170,-0.425180,,,0,zone_FOUDON,,0
FOUILLOU,322999,"LE FOUILLOUX",,47.417871,-0.668967,,,0,zone_LE_FOUILLOUX,,0
FOUQUE-E,28861,"FOUQUETTERIE",,47.468320,-0.705178,,,0,zone_FOUQUETTERIE,,0
FOUQUETT,1497,"FOUQUETTERIE",,47.467944,-0.705195,,,0,zone_FOUQUETTERIE,,0
FOUSSEAU,24740,"FOUSSEAUX",,47.515797,-0.468496,,,0,zone_FOUSSEAUX,,0
FOUSSE-E,25785,"FOUSSEAUX",,47.515809,-0.468593,,,0,zone_FOUSSEAUX,,0
FRANCA-E,27417,"FRANCAISERIE",,47.521492,-0.466192,,,0,zone_FRANCAISERIE,,1
FRANCAIS,26601,"FRANCAISERIE",,47.520897,-0.465829,,,0,zone_FRANCAISERIE,,1
FRANVI-E,13502,"VILLON",,47.433631,-0.522856,,,0,zone_VILLON,,1
FRANVILL,15918,"VILLON",,47.433755,-0.523110,,,0,zone_VILLON,,1
FRATE-E,71441,"FRATERNITE",,47.490860,-0.561750,,,0,zone_FRATERNITE,,1
FRATER,49164,"FRATERNITE",,47.490901,-0.560341,,,0,zone_FRATERNITE,,1
FRAVISCO,697386,"COLLEGE FRANCOIS VILLON",,47.433156,-0.522406,,,0,zone_COLLEGE_FRANCOIS_VILLON,,0
FRCEVE-E,15734,"CEVERT",,47.446702,-0.543656,,,0,zone_CEVERT,,1
FRCEVERT,14982,"CEVERT",,47.446262,-0.544096,,,0,zone_CEVERT,,1
FREMON-E,5869,"FREMOND",,47.485810,-0.561871,,,0,zone_FREMOND,,0
FREMONT,22950,"FREMOND",,47.485675,-0.561327,,,0,zone_FREMOND,,0
FREMUR,18974,"FREMUR",,47.458710,-0.558245,,,0,zone_FREMUR,,1
FREMUR-E,19151,"FREMUR",,47.458594,-0.558077,,,0,zone_FREMUR,,1
FRESNA-E,27900,"FRESNAIES",,47.448240,-0.500884,,,0,zone_FRESNAIES,,1
FRESNAIE,23491,"FRESNAIES",,47.448059,-0.500503,,,0,zone_FRESNAIES,,1
FRESN-AR,29527,"LE FRESNE",,47.442438,-0.583639,,,0,zone_LE_FRESNE,,0
FRESNE,32041,"LE FRESNE",,47.442446,-0.583651,,,0,zone_LE_FRESNE,,0
FRMEIL-E,27294,"MEILLAND",,47.448566,-0.546285,,,0,zone_MEILLAND,,1
FRMEILLA,24551,"MEILLAND",,47.447956,-0.546600,,,0,zone_MEILLAND,,0
FROMIO-E,678514,"LE FROMIOUX",,47.510080,-0.717030,,,0,zone_LE_FROMIOUX,,0
FROMIOUX,159425,"LE FROMIOUX",,47.508990,-0.714920,,,0,zone_LE_FROMIOUX,,0
FRONDEMA,22268,"FRONT DE MAINE",,47.472499,-0.566568,,,0,zone_FRONT_DE_MAINE,,1
FRONDM-E,13856,"FRONT DE MAINE",,47.472301,-0.566149,,,0,zone_FRONT_DE_MAINE,,1
FUNAUL-E,211846,"FUNAULT",,47.534550,-0.456580,,,0,zone_FUNAULT,,0
FUNAULT,368680,"FUNAULT",,47.534650,-0.456600,,,0,zone_FUNAULT,,0
GAIGNE,150305,"GAIGNE",,47.383980,-0.552430,,,0,zone_GAIGNE,,0
GALIL-E,9088,"GALILEE",,47.456488,-0.667740,,,0,zone_GALILEE,,0
GALILEE,17363,"GALILEE",,47.456335,-0.667254,,,0,zone_GALILEE,,0
GALLIE,3438,"GALLIENI",,47.434659,-0.524680,,,0,zone_GALLIENI,,1
GALLI-E,4908,"GALLIENI",,47.434786,-0.524459,,,0,zone_GALLIENI,,1
GALLIE-E,12457,"GALLIENI EUROPE",,47.486143,-0.528857,,,0,zone_GALLIENI_EUROPE,,0
GALLIENI,16963,"GALLIENI EUROPE",,47.486181,-0.529006,,,0,zone_GALLIENI_EUROPE,,0
GARD-D-E,735774,"MAIRIE DE SAINT SYLVAIN",,47.519960,-0.471023,,,0,zone_MAIRIE_DE_SAINT_SYLVAIN,,1
GARDON-E,38569,"GARDONNE",,47.521641,-0.470914,,,0,zone_GARDONNE,,1
GARDONNE,12906,"GARDONNE",,47.521754,-0.471943,,,0,zone_GARDONNE,,1
GARDOT,27530,"GARDOT",,47.468292,-0.533399,,,0,zone_GARDOT,,1
GARDOT-E,17618,"GARDOT",,47.468304,-0.533159,,,0,zone_GARDOT,,1
GAREBO-E,14886,"GARE DE BOUCHEMAINE",,47.416681,-0.614799,,,0,zone_GARE_DE_BOUCHEMAINE,,1
GAREBOUC,13972,"GARE DE BOUCHEMAINE",,47.416680,-0.614755,,,0,zone_GARE_DE_BOUCHEMAINE,,1
GARECO-E,23799,"GARE D'ECOUFLANT",,47.503916,-0.519653,,,0,zone_GARE_D'ECOUFLANT,,0
GARECOUF,30849,"GARE D'ECOUFLANT",,47.503638,-0.520149,,,0,zone_GARE_D'ECOUFLANT,,0
GAREPA-E,715,"GARES PAPIN",,47.465171,-0.557540,,,0,zone_GARES_PAPIN,,0
GAREPAPI,16316,"GARES PAPIN",,47.464953,-0.557704,,,0,zone_GARES_PAPIN,,0
GARESEMA,21525,"GARES SEMARD",,47.464970,-0.559488,,,0,zone_GARES_SEMARD,,0
GARESNCF,18137,"GARE ROUTIERE",,47.464733,-0.558147,,,0,zone_GARE_ROUTIERE,,0
GARR-AR,7592,"GARES SEMARD",,47.464895,-0.559233,,,0,zone_GARES_SEMARD,,0
GASNIE-E,30059,"GASNIER",,47.485205,-0.571703,,,0,zone_GASNIER,,1
GASNIER,21628,"GASNIER",,47.485235,-0.571814,,,0,zone_GASNIER,,1
GASPAL-E,409,"GASPALON",,47.452835,-0.507260,,,0,zone_GASPALON,,0
GASPALON,21485,"GASPALON",,47.453312,-0.506954,,,0,zone_GASPALON,,0
GATS,7008,"LES GATS",,47.474413,-0.517654,,,0,zone_LES_GATS,,1
GATS  -E,11785,"LES GATS",,47.474354,-0.516839,,,0,zone_LES_GATS,,1
GAUBER-E,12547,"GAUBERT",,47.475296,-0.599519,,,0,zone_GAUBERT,,0
GAUBERT,18121,"GAUBERT",,47.474586,-0.599785,,,0,zone_GAUBERT,,0
GAUBLOCA,18625,"GAUBOURGS",,47.448340,-0.572485,,,0,zone_GAUBOURGS,,1
GAUBLOCB,21184,"GAUBOURGS",,47.448571,-0.573360,,,0,zone_GAUBOURGS,,0
GAUBOU-E,23234,"GAUBOURGS",,47.449261,-0.572983,,,0,zone_GAUBOURGS,,0
GAUBOUR5,29955,"GAUBOURGS",,47.448022,-0.572366,,,0,zone_GAUBOURGS,,1
GAUGUI-E,397148,"PAUL GAUGUIN",,47.526717,-0.464026,,,0,zone_PAUL_GAUGUIN,,1
GAUTIE-E,615013,"PAS GAUTIER",,47.471041,-0.409180,,,0,zone_PAS_GAUTIER,,0
GAUTIER,538212,"PAS GAUTIER",,47.471008,-0.409265,,,0,zone_PAS_GAUTIER,,0
GBREM-E,25296,"GARES BREMONT",,47.465691,-0.559470,,,0,zone_GARES_BREMONT,,1
GDMAINE,14612,"GRAND MAINE",,47.467641,-0.593102,,,0,zone_GRAND_MAINE,,1
GDMAIN-E,15461,"GRAND MAINE",,47.467363,-0.593559,,,0,zone_GRAND_MAINE,,1
GDMOTTAY,327252,"GRAND MOTTAY",,47.576000,-0.477270,,,0,zone_GRAND_MOTTAY,,0
GDPERI-E,4875,"GRAND PERIGNE",,47.473873,-0.614642,,,0,zone_GRAND_PERIGNE,,1
GDPERIGN,13901,"GRAND PERIGNE",,47.473816,-0.614355,,,0,zone_GRAND_PERIGNE,,1
GDPRES-E,18745,"GRAND PRESSOIR",,47.399449,-0.528153,,,0,zone_GRAND_PRESSOIR,,0
GDPRESSO,39547,"GRAND PRESSOIR",,47.399456,-0.527772,,,0,zone_GRAND_PRESSOIR,,1
GEMMET-E,5906,"GEMMETRIE-ESAIP",,47.463297,-0.499339,,,0,zone_GEMMETRIE-ESAIP,,1
GEMMETR,27273,"GEMMETRIE-ESAIP",,47.463210,-0.499167,,,0,zone_GEMMETRIE-ESAIP,,1
GENDRIE,833019,"LA GENDRIE",,47.498869,-0.324872,,,0,zone_LA_GENDRIE,,0
GENDRI-E,787054,"LA GENDRIE",,47.498869,-0.324872,,,0,zone_LA_GENDRIE,,0
GENETI-E,30451,"GENETIERE",,47.494905,-0.443673,,,0,zone_GENETIERE,,0
GENETIER,30363,"GENETIERE",,47.494996,-0.442524,,,0,zone_GENETIERE,,1
GENIE,17276,"GENIE",,47.457958,-0.563911,,,0,zone_GENIE,,1
GENIE -E,16931,"GENIE",,47.458154,-0.563821,,,0,zone_GENIE,,1
GENTR-E,30843,"GENTRIC",,47.447807,-0.485196,,,0,zone_GENTRIC,,0
GENTRIC,45617,"GENTRIC",,47.447420,-0.485343,,,0,zone_GENTRIC,,0
GERI25,4572,"GRANDS RUAUX",,47.565824,-0.555766,,,0,zone_GRANDS_RUAUX,,0
GERI25-E,19686,"GRANDS RUAUX",,47.565996,-0.555508,,,0,zone_GRANDS_RUAUX,,0
GERICA-E,2160,"GERICAULT",,47.459884,-0.523673,,,0,zone_GERICAULT,,1
GERICAUL,9434,"GERICAULT",,47.460093,-0.524622,,,0,zone_GERICAULT,,1
GGESSAND,18970,"GEORGE SAND",,47.433062,-0.519457,,,0,zone_GEORGE_SAND,,1
GGSAND-E,36947,"GEORGE SAND",,47.433306,-0.519547,,,0,zone_GEORGE_SAND,,1
GILLIE-E,13563,"GILLIER",,47.475014,-0.525450,,,0,zone_GILLIER,,1
GILLIER,4265,"GILLIER",,47.475033,-0.525810,,,0,zone_GILLIER,,1
GIRAD-E,53995,"GIRARDEAU",,47.436446,-0.520354,,,0,zone_GIRARDEAU,,1
GIRARD,111619,"GIRARD",,47.490608,-0.581705,,,0,zone_GIRARD,,0
GIRARDE,24763,"GIRARDEAU",,47.436613,-0.521004,,,0,zone_GIRARDEAU,,1
GIRARD-E,793256,"GIRARD",,47.490616,-0.581843,,,0,zone_GIRARD,,0
GIRAUD,5136,"GIRAUDIERE",,47.521362,-0.436064,,,0,zone_GIRAUDIERE,,0
GLAND,863930,"LA GLAND",,47.403587,-0.658370,,,0,zone_LA_GLAND,,0
GLYCIN-E,28945,"GLYCINES",,47.498845,-0.523924,,,0,zone_GLYCINES,,0
GLYCINES,2847,"GLYCINES",,47.498996,-0.523861,,,0,zone_GLYCINES,,0
GOURON-E,1177,"GOURONNIERES",,47.483141,-0.569477,,,0,zone_GOURONNIERES,,1
GOURONNI,19767,"GOURONNIERES",,47.482997,-0.569387,,,0,zone_GOURONNIERES,,1
GPOMPIDO,2755,"POMPIDOU",,47.491944,-0.592289,,,0,zone_POMPIDOU,,0
GPOMPI-E,10339,"POMPIDOU",,47.492065,-0.592230,,,0,zone_POMPIDOU,,0
GRANBE-E,1713,"GRANGE AUX BELLES",,47.476674,-0.628330,,,0,zone_GRANGE_AUX_BELLES,,1
GRANBELL,19824,"GRANGE AUX BELLES",,47.476732,-0.628596,,,0,zone_GRANGE_AUX_BELLES,,1
GRANCHEM,658794,"GRAND CHEMIN",,47.417545,-0.310648,,,0,zone_GRAND_CHEMIN,,0
GRANCLAY,748121,"GRAND CLAYE",,47.387113,-0.538381,,,0,zone_GRAND_CLAYE,,0
GRANCL-E,627562,"GRAND CLOS",,47.479790,-0.413530,,,0,zone_GRAND_CLOS,,0
GRANCLOS,51638,"GRAND CLOS",,47.479762,-0.413648,,,0,zone_GRAND_CLOS,,1
GRANDM-E,12485,"GRANDMONT",,47.486955,-0.588012,,,0,zone_GRANDMONT,,1
GRANDMON,11878,"GRANDMONT",,47.487539,-0.587585,,,0,zone_GRANDMONT,,1
GRANDPIN,21061,"GRAND PIN",,47.473291,-0.631953,,,0,zone_GRAND_PIN,,1
GRANPI-E,22564,"GRAND PIN",,47.473309,-0.631658,,,0,zone_GRAND_PIN,,1
GRCARR-E,7784,"ARENA LOIRE",,47.443490,-0.478239,,,0,zone_ARENA_LOIRE,,1
GRCARREA,7000,"ARENA LOIRE",,47.443448,-0.478675,,,0,zone_ARENA_LOIRE,,1
GRCHAM-E,669,"GRANDS CHAMPS",,47.514759,-0.434073,,,0,zone_GRANDS_CHAMPS,,0
GRCHAMPS,364,"GRANDS CHAMPS",,47.514576,-0.434143,,,0,zone_GRANDS_CHAMPS,,0
GRCPRU-E,25729,"GROUPE COMMERCIAL",,47.445567,-0.606601,,,0,zone_GROUPE_COMMERCIAL,,1
GRCPRUNI,24782,"GROUPE COMMERCIAL",,47.445759,-0.605912,,,0,zone_GROUPE_COMMERCIAL,,1
GRENOUIL,343073,"LE GRENOUILLE",,47.502990,-0.328218,,,0,zone_LE_GRENOUILLE,,0
GRES11-E,15716,"GRESILLE",,47.460046,-0.605113,,,0,zone_GRESILLE,,1
GRESILLE,20154,"GRESILLE",,47.459649,-0.605536,,,0,zone_GRESILLE,,1
GRIMOR-E,24527,"GRIMORELLE",,47.529433,-0.507283,,,0,zone_GRIMORELLE,,0
GRIMOREL,7975,"GRIMORELLE",,47.529481,-0.507319,,,0,zone_GRIMORELLE,,0
GROI 2-E,919401,"LES GROIES 2",,47.492003,-0.399549,,,0,zone_LES_GROIES_2,,0
GROIES,14865,"LES GROIES 1",,47.493931,-0.403143,,,0,zone_LES_GROIES_1,,0
GROIES 2,456886,"LES GROIES 2",,47.492003,-0.399549,,,0,zone_LES_GROIES_2,,0
GROIES-E,23297,"LES GROIES 1",,47.493931,-0.403143,,,0,zone_LES_GROIES_1,,0
GROLLI-E,30562,"GROLIERE",,47.353977,-0.527557,,,0,zone_GROLIERE,,0
GROLLIER,29484,"GROLIERE",,47.354003,-0.527482,,,0,zone_GROLIERE,,0
GRUICHE,306120,"LA GRUICHE",,47.553519,-0.453813,,,0,zone_LA_GRUICHE,,0
GRUICH-E,560134,"LA GRUICHE",,47.553579,-0.453865,,,0,zone_LA_GRUICHE,,0
GUERAND,12936,"GUERANDAIS",,47.527483,-0.748942,,,0,zone_GUERANDAIS,,0
GUERAN-E,12246,"GUERANDAIS",,47.527290,-0.748592,,,0,zone_GUERANDAIS,,0
GUICHA-E,16895,"GUICHARD",,47.454712,-0.547977,,,0,zone_GUICHARD,,1
GUICHARD,21276,"GUICHARD",,47.455265,-0.549272,,,0,zone_GUICHARD,,1
GUILLAU,785925,"GUILLAUMIERE",,47.533081,-0.671809,,,0,zone_GUILLAUMIERE,,0
GUILL-E,484479,"GUILLAUMIERE",,47.533187,-0.671804,,,0,zone_GUILLAUMIERE,,0
GUINEZE,18158,"GUINEZERT",,47.461781,-0.631003,,,0,zone_GUINEZERT,,0
GUINEZ-E,13857,"GUINEZERT",,47.461792,-0.631054,,,0,zone_GUINEZERT,,0
HARAS,20835,"FOCH HARAS",,47.467147,-0.551934,,,0,zone_FOCH_HARAS,,1
HARAS-E,3412,"FOCH HARAS",,47.467212,-0.552229,,,0,zone_FOCH_HARAS,,1
HARENC,18680,"HARENCHERES",,47.448709,-0.615630,,,0,zone_HARENCHERES,,1
HARENC-E,498256,"HARENCHERES",,47.448726,-0.615664,,,0,zone_HARENCHERES,,0
HAUBOUCH,4077,"HAUTS DE BOUCHEMAINE",,47.430509,-0.609587,,,0,zone_HAUTS_DE_BOUCHEMAINE,,1
HAUBOU-E,4893,"HAUTS DE BOUCHEMAINE",,47.430495,-0.609577,,,0,zone_HAUTS_DE_BOUCHEMAINE,,1
HAUCOUD,318097,"HAUT COUDRAY",,47.530435,-0.624035,,,0,zone_HAUT_COUDRAY,,1
HAUCOU-E,652182,"HAUT COUDRAY",,47.530524,-0.624130,,,0,zone_HAUT_COUDRAY,,1
HAUTCH-E,557732,"BAS CHEMIN",,47.424928,-0.384261,,,0,zone_BAS_CHEMIN,,1
HAUTCHEM,779469,"BAS CHEMIN",,47.424959,-0.384259,,,0,zone_BAS_CHEMIN,,1
HAUTE-E,792660,"HAUTE ROCHE",,47.469210,-0.634880,,,0,zone_HAUTE_ROCHE,,0
HAUTERO,20353,"HAUTE ROCHE",,47.469200,-0.634750,,,0,zone_HAUTE_ROCHE,,0
HAUTPR-E,52,"HAUT PRESSOIR",,47.453201,-0.538005,,,0,zone_HAUT_PRESSOIR,,1
HAUTPRES,2552,"HAUT PRESSOIR",,47.453187,-0.538497,,,0,zone_HAUT_PRESSOIR,,1
HDVSUB,159454,"HOTEL DE VILLE",,47.471996,-0.546314,,,0,zone_HOTEL_DE_VILLE,,1
HERMI1,306685,"L'HERMITAGE  1",,47.584554,-0.417496,,,0,zone_L'HERMITAGE__1,,0
HERMI1-E,152367,"L'HERMITAGE 1",,47.584554,-0.417496,,,0,zone_L'HERMITAGE_1,,0
HERMIT32,1981,"L'HERMITAGE SOUCELLES",,47.584554,-0.417496,,,0,zone_L'HERMITAGE_SOUCELLES,,0
HERMITAG,16281,"HERMITAGE",,47.477769,-0.635934,,,0,zone_HERMITAGE,,1
HERMIT-E,16836,"HERMITAGE",,47.477766,-0.635291,,,0,zone_HERMITAGE,,1
HERMLT32,3329,"L'HERMITAGE SOUCELLES",,47.584554,-0.417496,,,0,zone_L'HERMITAGE_SOUCELLES,,0
HIPPOD-E,25720,"HIPPODROME",,47.500805,-0.507804,,,0,zone_HIPPODROME,,1
HIPPODRO,25067,"HIPPODROME",,47.501259,-0.507444,,,0,zone_HIPPODROME,,1
HJOU32,18910,"HAIE JOULAIN",,47.517572,-0.462668,,,0,zone_HAIE_JOULAIN,,0
HJOU32-E,32588,"HAIE JOULAIN",,47.517504,-0.462734,,,0,zone_HAIE_JOULAIN,,1
HMAI,11449,"LORRAINE",,47.470342,-0.547246,,,0,zone_LORRAINE,,1
HMTRE-E,20239,"8 MAI TRELAZE",,47.449356,-0.464958,,,0,zone_8_MAI_TRELAZE,,1
HMTREL,14635,"8 MAI TRELAZE",,47.449529,-0.465252,,,0,zone_8_MAI_TRELAZE,,0
HOPA8-C,27358,"CHU - HOPITAL",,47.480558,-0.554844,,,0,zone_CHU_-_HOPITAL,,1
HOSGEM-E,6304,"HOPITAL DE SAINTE GEMMES",,47.422930,-0.560796,,,0,zone_HOPITAL_DE_SAINTE_GEMMES,,1
HOSGEMME,3118,"HOPITAL DE SAINTE GEMMES",,47.422888,-0.560814,,,0,zone_HOPITAL_DE_SAINTE_GEMMES,,1
HOTDIE-E,22507,"HOTEL DIEU",,47.479354,-0.560907,,,0,zone_HOTEL_DIEU,,1
HOTDIEU,4414,"HOTEL DIEU",,47.479208,-0.559358,,,0,zone_HOTEL_DIEU,,1
HOTELL-E,31454,"HOTELLERIE",,47.488876,-0.518919,,,0,zone_HOTELLERIE,,0
HOTELLER,30702,"HOTELLERIE",,47.489338,-0.519807,,,0,zone_HOTELLERIE,,0
HRECUL-E,1885,"HAUTE DE RECULEE",,47.485016,-0.552668,,,0,zone_HAUTE_DE_RECULEE,,0
HRECULEE,11114,"HAUTE DE RECULEE",,47.485016,-0.552668,,,0,zone_HAUTE_DE_RECULEE,,0
HTCHAP-E,72625,"HAUTES CHAPELLES",,47.475810,-0.380717,,,0,zone_HAUTES_CHAPELLES,,0
HTCHAPEL,969044,"HAUTES CHAPELLES",,47.475842,-0.380835,,,0,zone_HAUTES_CHAPELLES,,0
HUETTE-E,924330,"HUETTERIE",,47.459490,-0.477410,,,0,zone_HUETTERIE,,0
HUETTERI,899997,"HUETTERIE",,47.459570,-0.477470,,,0,zone_HUETTERIE,,0
HULLET-E,33384,"HULLETERIES",,47.465434,-0.720887,,,0,zone_HULLETERIES,,0
HULLETER,25810,"HULLETERIES",,47.465404,-0.720908,,,0,zone_HULLETERIES,,0
HUMEAUX,746601,"LES HUMEAUX",,47.542962,-0.442226,,,0,zone_LES_HUMEAUX,,0
HUTREA-E,7382,"HUTREAU",,47.431311,-0.555381,,,0,zone_HUTREAU,,0
HUTREAU,10466,"HUTREAU",,47.432943,-0.554608,,,0,zone_HUTREAU,,0
HYLIER,471124,"LE HYLIER",,47.584661,-0.401706,,,0,zone_LE_HYLIER,,0
HYLIER-E,968578,"LE HYLIER",,47.584661,-0.401706,,,0,zone_LE_HYLIER,,0
I U T,27801,"IUT",,47.480259,-0.602401,,,0,zone_IUT,,1
I U T -E,31087,"IUT",,47.480524,-0.602981,,,0,zone_IUT,,1
IMTEC,27425,"BOUZINAC",,47.503303,-0.509747,,,0,zone_BOUZINAC,,0
IMTEC-E,31805,"BOUZINAC",,47.503259,-0.509742,,,0,zone_BOUZINAC,,0
INDUST-E,12168,"INDUSTRIE",,47.490047,-0.522846,,,0,zone_INDUSTRIE,,0
INDUSTRI,11352,"INDUSTRIE",,47.490211,-0.522968,,,0,zone_INDUSTRIE,,0
INRA,13650,"INRA",,47.474747,-0.611051,,,0,zone_INRA,,1
INRA  -E,7366,"INRA",,47.474689,-0.611313,,,0,zone_INRA,,1
INTAVR-E,6846,"AUCHAN",,47.518211,-0.606527,,,0,zone_AUCHAN,,1
INTERAVR,29162,"AUCHAN",,47.518709,-0.607529,,,0,zone_AUCHAN,,1
INTERMIL,3434,"INTERMARCHE",,47.454554,-0.534756,,,0,zone_INTERMARCHE,,1
INTMIL-E,1195,"INTERMARCHE",,47.455757,-0.533811,,,0,zone_INTERMARCHE,,1
INTREP-E,8993,"INTREPIDE",,47.447342,-0.552223,,,0,zone_INTREPIDE,,0
INTREPID,14842,"INTREPIDE",,47.447216,-0.552128,,,0,zone_INTREPIDE,,0
IRLANDE,8934,"IRLANDE",,47.522968,-0.604944,,,0,zone_IRLANDE,,1
IRLAND-E,12365,"IRLANDE",,47.523083,-0.604311,,,0,zone_IRLANDE,,1
ISORET,25741,"ISORET",,47.474679,-0.520858,,,0,zone_ISORET,,1
ISORET-E,23628,"ISORET",,47.474498,-0.520126,,,0,zone_ISORET,,1
ITALIE,9717,"ITALIE",,47.524508,-0.602314,,,0,zone_ITALIE,,1
ITALIE-E,13083,"ITALIE",,47.524826,-0.602071,,,0,zone_ITALIE,,1
JANEQUIN,297498,"COLLEGE JANEQUIN",,47.497770,-0.591690,,,0,zone_COLLEGE_JANEQUIN,,0
JARDBOTA,815390,"JARDIN BOTANIQUE",,47.571460,-0.502780,,,0,zone_JARDIN_BOTANIQUE,,0
JARDFA,35425,"JARDINS FAMILIAUX",,47.485548,-0.508438,,,0,zone_JARDINS_FAMILIAUX,,1
JARDF-E,46662,"JARDINS FAMILIAUX",,47.485618,-0.508049,,,0,zone_JARDINS_FAMILIAUX,,1
JAUDE-E,21218,"JAUDETTE",,47.463307,-0.490952,,,0,zone_JAUDETTE,,0
JAUDET-E,22741,"JAUDETTE",,47.463827,-0.490378,,,0,zone_JAUDETTE,,1
JAUDETT,10931,"JAUDETTE",,47.463292,-0.491090,,,0,zone_JAUDETTE,,0
JAUDETTE,22121,"JAUDETTE",,47.463698,-0.490139,,,0,zone_JAUDETTE,,1
JDELAVAL,276704,"JEANNE DE LAVAL",,47.465663,-0.383810,,,0,zone_JEANNE_DE_LAVAL,,0
JDELAV-E,185658,"JEANNE DE LAVAL",,47.465852,-0.383524,,,0,zone_JEANNE_DE_LAVAL,,0
JE23-E,11485,"JEAN XXIII",,47.448466,-0.563817,,,0,zone_JEAN_XXIII,,1
JEAN 23,14455,"JEAN XXIII",,47.448340,-0.563646,,,0,zone_JEAN_XXIII,,1
JEAN M-E,14704,"MONNET",,47.465518,-0.601284,,,0,zone_MONNET,,1
JEAN MON,12810,"MONNET",,47.465597,-0.601453,,,0,zone_MONNET,,1
JEANNARC,590509,"COLLEGE JEANNE D'ARC",,47.520260,-0.465560,,,0,zone_COLLEGE_JEANNE_D'ARC,,0
JEANRO-E,256324,"JEAN ROSTAND",,47.448243,-0.500897,,,0,zone_JEAN_ROSTAND,,0
JEANROST,369358,"JEAN ROSTAND",,47.448876,-0.501245,,,0,zone_JEAN_ROSTAND,,0
JEANZAY,602684,"COLLEGE JEAN ZAY",,47.529670,-0.607600,,,0,zone_COLLEGE_JEAN_ZAY,,0
JEBOUI-E,32451,"JEAN BOUIN",,47.459015,-0.532828,,,0,zone_JEAN_BOUIN,,1
JEBOUIN,43885,"JEAN BOUIN",,47.458847,-0.532951,,,0,zone_JEAN_BOUIN,,1
JEBOUT-E,12854,"JEAN BOUTTON",,47.438792,-0.507286,,,0,zone_JEAN_BOUTTON,,1
JEBOUTON,30254,"JEAN BOUTTON",,47.438713,-0.507415,,,0,zone_JEAN_BOUTTON,,1
JEHUEZ,13375,"JEAN HUEZ",,47.530746,-0.594047,,,0,zone_JEAN_HUEZ,,0
JEHUEZ-E,27321,"JEAN HUEZ",,47.530869,-0.594274,,,0,zone_JEAN_HUEZ,,0
JEJAUR-E,5930,"JEAN JAURES",,47.457691,-0.522848,,,0,zone_JEAN_JAURES,,1
JEJAURES,6732,"JEAN JAURES",,47.457327,-0.523182,,,0,zone_JEAN_JAURES,,1
JEROSTAN,10465,"ROSTAND",,47.434350,-0.513751,,,0,zone_ROSTAND,,1
JEROST-E,16865,"ROSTAND",,47.434306,-0.514093,,,0,zone_ROSTAND,,1
JERUSA-E,30745,"JERUSALEM",,47.473566,-0.529793,,,0,zone_JERUSALEM,,1
JERUSALE,23164,"JERUSALEM",,47.473043,-0.530203,,,0,zone_JERUSALEM,,1
JOACHI-E,963548,"JOACHIM DU BELLAY",,47.476535,-0.547354,,,0,zone_JOACHIM_DU_BELLAY,,0
JOACHIM,890943,"JOACHIM DU BELLAY",,47.476535,-0.547354,,,0,zone_JOACHIM_DU_BELLAY,,0
JOXE,20531,"JOXE",,47.484344,-0.541633,,,0,zone_JOXE,,0
JOXE  -E,21707,"JOXE",,47.484440,-0.541420,,,0,zone_JOXE,,0
JUFERR-E,829,"JULES FERRY",,47.466362,-0.498862,,,0,zone_JULES_FERRY,,1
JUFERRY,32650,"JULES FERRY",,47.466380,-0.498730,,,0,zone_JULES_FERRY,,1
JUIGDEP,15142,"JUIGNE",,47.539927,-0.615327,,,0,zone_JUIGNE,,0
JUIGN-E,15158,"JUIGNE",,47.539142,-0.616188,,,0,zone_JUIGNE,,0
JUINDRIE,103281,"LES JUINDRIES",,47.506177,-0.382575,,,0,zone_LES_JUINDRIES,,1
JULESV-E,3251,"JULES VERNE",,47.446945,-0.560643,,,0,zone_JULES_VERNE,,1
JULESVER,11240,"JULES VERNE",,47.447483,-0.562107,,,0,zone_JULES_VERNE,,1
JUSTIC-E,4918,"JUSTICES",,47.453357,-0.526254,,,0,zone_JUSTICES,,1
JUSTICES,9099,"JUSTICES",,47.453598,-0.526570,,,0,zone_JUSTICES,,1
KENNED-E,21066,"KENNEDY",,47.492125,-0.577152,,,0,zone_KENNEDY,,1
KENNEDY,32307,"KENNEDY",,47.492144,-0.577262,,,0,zone_KENNEDY,,1
LA BOI-E,19259,"LA BOISSIERE",,47.504555,-0.600296,,,0,zone_LA_BOISSIERE,,1
LA BOISS,15667,"LA BOISSIERE",,47.504780,-0.600003,,,0,zone_LA_BOISSIERE,,1
LABA32-E,12328,"LA BARRE VILLEVEQUE",,47.552285,-0.429190,,,0,zone_LA_BARRE_VILLEVEQUE,,0
LABARR32,26356,"LA BARRE VILLEVEQUE",,47.552215,-0.429335,,,0,zone_LA_BARRE_VILLEVEQUE,,0
LABARRE,26186,"LA BARRE",,47.473206,-0.597386,,,0,zone_LA_BARRE,,0
LABARR-E,24553,"LA BARRE",,47.473255,-0.598196,,,0,zone_LA_BARRE,,0
LABOUTEI,434210,"LA BOUTEILLERIE",,47.539153,-0.438941,,,0,zone_LA_BOUTEILLERIE,,0
LABROS-E,19344,"LA BROSSE ECOUFLANT",,47.532458,-0.522009,,,0,zone_LA_BROSSE_ECOUFLANT,,1
LABROSSE,11507,"LA BROSSE ECOUFLANT",,47.532512,-0.522068,,,0,zone_LA_BROSSE_ECOUFLANT,,1
LABRUY-E,15826,"LA BRUYERE",,47.476406,-0.573319,,,0,zone_LA_BRUYERE,,1
LABRUYER,2726,"LA BRUYERE",,47.476615,-0.573850,,,0,zone_LA_BRUYERE,,1
LABUIS-E,24945,"LA BUISSAIE",,47.396106,-0.552350,,,0,zone_LA_BUISSAIE,,1
LABUISSA,24161,"LA BUISSAIE",,47.396144,-0.552051,,,0,zone_LA_BUISSAIE,,1
LACACC-E,16598,"MAISON DE L'ENVIRONNEMENT",,47.464039,-0.594320,,,0,zone_MAISON_DE_L'ENVIRONNEMENT,,1
LACACCUE,15782,"MAISON DE L'ENVIRONNEMENT",,47.464274,-0.593994,,,0,zone_MAISON_DE_L'ENVIRONNEMENT,,1
LACDMA-E,27440,"LAC DE MAINE NAUTIQUE",,47.461088,-0.596344,,,0,zone_LAC_DE_MAINE_NAUTIQUE,,1
LACDMAIN,30379,"LAC DE MAINE NAUTIQUE",,47.461212,-0.596130,,,0,zone_LAC_DE_MAINE_NAUTIQUE,,1
LACOUD-E,19006,"LA COUDRE",,47.460505,-0.710345,,,0,zone_LA_COUDRE,,0
LACOUDRE,14817,"LA COUDRE",,47.460665,-0.710378,,,0,zone_LA_COUDRE,,0
LACROIX,98921,"LA CROIX",,47.417872,-0.314484,,,0,zone_LA_CROIX,,0
LAEN-E,66371,"LAENNEC",,47.539427,-0.618638,,,0,zone_LAENNEC,,1
LAENN,43968,"LAENNEC",,47.539362,-0.618361,,,0,zone_LAENNEC,,1
LAFA8-C,19461,"PLACE LA FAYETTE",,47.460438,-0.554345,,,0,zone_PLACE_LA_FAYETTE,,1
LAFA8-E,6452,"PLACE LA FAYETTE",,47.460338,-0.554863,,,0,zone_PLACE_LA_FAYETTE,,1
LAFAUV-E,17497,"LA FAUVELAIS",,47.451983,-0.512013,,,0,zone_LA_FAUVELAIS,,0
LAFAUVEL,8205,"LA FAUVELAIS",,47.452156,-0.512856,,,0,zone_LA_FAUVELAIS,,0
LAGLOU-E,32242,"GLOUTIERE",,47.508082,-0.643552,,,0,zone_GLOUTIERE,,0
LAGLOUTI,1095,"GLOUTIERE",,47.509348,-0.646244,,,0,zone_GLOUTIERE,,0
LAGRAN-E,11339,"LA GRANGE",,47.504593,-0.636744,,,0,zone_LA_GRANGE,,0
LAGRANGE,26550,"LA GRANGE",,47.503303,-0.632424,,,0,zone_LA_GRANGE,,0
LAJANV-E,31442,"JANVRIE",,47.504195,-0.699967,,,0,zone_JANVRIE,,0
LAJANVRI,29429,"JANVRIE",,47.504083,-0.699612,,,0,zone_JANVRIE,,0
LALANDE,30783,"LANDE",,47.562261,-0.585390,,,0,zone_LANDE,,0
LALAN-E,8374,"LANDE",,47.562423,-0.585343,,,0,zone_LANDE,,0
LAMARE,25707,"LA MARE",,47.468350,-0.465200,,,0,zone_LA_MARE,,0
LAMARE-E,691886,"LA MARE",,47.468470,-0.465370,,,0,zone_LA_MARE,,0
LAMART,79764,"LAREVELLIERE",,47.471204,-0.531820,,,0,zone_LAREVELLIERE,,1
LAMART-E,2631,"LAREVELLIERE",,47.471345,-0.533587,,,0,zone_LAREVELLIERE,,1
LANDREAU,29073,"LE LANDREAU",,47.474063,-0.617674,,,0,zone_LE_LANDREAU,,1
LANDRE-E,31271,"LE LANDREAU",,47.474144,-0.617846,,,0,zone_LE_LANDREAU,,1
LANGEV-E,24587,"LANGEVINE",,47.478708,-0.691873,,,0,zone_LANGEVINE,,0
LANGEVIN,23618,"LANGEVINE",,47.477864,-0.691977,,,0,zone_LANGEVINE,,0
LAPLES-E,7870,"LA PLESSE",,47.499550,-0.620450,,,0,zone_LA_PLESSE,,0
LAPLESSE,22986,"LA PLESSE",,47.499433,-0.620354,,,0,zone_LA_PLESSE,,0
LAPOIN-E,17596,"LA POINTE",,47.409798,-0.620281,,,0,zone_LA_POINTE,,0
LAPOINTE,16943,"LA POINTE",,47.410419,-0.619809,,,0,zone_LA_POINTE,,0
LAREU-E,13697,"LA REUX",,47.469448,-0.510408,,,0,zone_LA_REUX,,1
LAREUX,31088,"LA REUX",,47.469512,-0.510420,,,0,zone_LA_REUX,,1
LAROCHE,5358,"LA ROCHE",,47.458122,-0.656950,,,0,zone_LA_ROCHE,,0
LAVOIR,327,"LAVOIR",,47.440713,-0.498791,,,0,zone_LAVOIR,,1
LAVOIR-E,10144,"LAVOIR",,47.440731,-0.498958,,,0,zone_LAVOIR,,1
LBALUE-E,28840,"BALUERES",,47.377626,-0.524770,,,0,zone_BALUERES,,0
LBALUERE,37252,"BALUERES",,47.377636,-0.524709,,,0,zone_BALUERES,,0
LCHATA-E,28519,"CHATAIGNERAIE",,47.441240,-0.607739,,,0,zone_CHATAIGNERAIE,,1
LCHATAIG,30413,"CHATAIGNERAIE",,47.441357,-0.607795,,,0,zone_CHATAIGNERAIE,,1
LE CLO-E,211710,"LE CLOS",,47.425193,-0.427874,,,0,zone_LE_CLOS,,0
LE CLOS,600179,"LE CLOS",,47.425409,-0.427883,,,0,zone_LE_CLOS,,0
LE PRE,776914,"LE PRÉ",,47.515184,-0.585102,,,0,zone_LE_PRÉ,,1
LE PRE-E,66363,"LE PRÉ",,47.515252,-0.585189,,,0,zone_LE_PRÉ,,1
LECHENE,12874,"LE CHENE",,47.420969,-0.575982,,,0,zone_LE_CHENE,,0
LECHEN-E,9672,"LE CHENE",,47.420682,-0.577453,,,0,zone_LE_CHENE,,0
LECL05-E,18831,"LECLERC",,47.482992,-0.575810,,,0,zone_LECLERC,,1
LECLERC5,32620,"LECLERC",,47.483036,-0.575932,,,0,zone_LECLERC,,1
LECLSY-E,30324,"MARECHAL LECLERC",,47.518390,-0.466711,,,0,zone_MARECHAL_LECLERC,,1
LECLSYLV,29018,"MARECHAL LECLERC",,47.518518,-0.466543,,,0,zone_MARECHAL_LECLERC,,1
LECOLO-E,26859,"ROUTE DU PLESSIS",,47.525426,-0.666841,,,0,zone_ROUTE_DU_PLESSIS,,1
LECOLOM,31338,"ROUTE DU PLESSIS",,47.525669,-0.667263,,,0,zone_ROUTE_DU_PLESSIS,,1
LECORB-E,1502,"LE CORBUSIER",,47.485470,-0.630915,,,0,zone_LE_CORBUSIER,,1
LECORBUS,12622,"LE CORBUSIER",,47.484389,-0.631741,,,0,zone_LE_CORBUSIER,,1
LECOTEAU,25663,"LE COTEAU",,47.398225,-0.548771,,,0,zone_LE_COTEAU,,1
LECOTE-E,26708,"LE COTEAU",,47.398013,-0.548897,,,0,zone_LE_COTEAU,,1
LECUIT,25536,"LECUIT",,47.489228,-0.562969,,,0,zone_LECUIT,,1
LECUIT-E,28784,"LECUIT",,47.489451,-0.562811,,,0,zone_LECUIT,,1
LEDENI-E,6895,"MAISON DU LAC",,47.466103,-0.597787,,,0,zone_MAISON_DU_LAC,,1
LEDENIER,6046,"MAISON DU LAC",,47.465956,-0.598860,,,0,zone_MAISON_DU_LAC,,1
LEFEVRE,15440,"LEFEVRE",,47.443326,-0.488759,,,0,zone_LEFEVRE,,1
LEFEVR-E,16289,"LEFEVRE",,47.443101,-0.489133,,,0,zone_LEFEVRE,,1
LEGRAS,24887,"LEGRAS",,47.529230,-0.566971,,,0,zone_LEGRAS,,1
LEGRAS-E,11618,"LEGRAS",,47.529207,-0.566899,,,0,zone_LEGRAS,,1
LEMERC-E,15956,"LEMERCIER",,47.498642,-0.522524,,,0,zone_LEMERCIER,,0
LEMERCIE,15271,"LEMERCIER",,47.498658,-0.522602,,,0,zone_LEMERCIER,,0
LENOT-E,20177,"LE NOTRE",,47.476095,-0.607361,,,0,zone_LE_NOTRE,,1
LENOTRE,15178,"LE NOTRE",,47.476408,-0.607127,,,0,zone_LE_NOTRE,,1
LEOLA2-E,5985,"LEO LAGRANGE",,47.447825,-0.510263,,,0,zone_LEO_LAGRANGE,,1
LEOLAGRA,5291,"LEO LAGRANGE",,47.447814,-0.510051,,,0,zone_LEO_LAGRANGE,,1
LESECO-E,7610,"LES ECOTS",,47.475495,-0.695774,,,0,zone_LES_ECOTS,,0
LESECOTS,19016,"LES ECOTS",,47.475583,-0.695597,,,0,zone_LES_ECOTS,,0
LESGARES,20210,"LES GARES",,47.465162,-0.555755,,,0,zone_LES_GARES,,1
LESGAT-E,24961,"LES GAS",,47.514588,-0.659639,,,0,zone_LES_GAS,,0
LESGRA-E,324614,"LES GRAPPES",,47.426711,-0.301195,,,0,zone_LES_GRAPPES,,0
LESGRAPP,120642,"LES GRAPPES",,47.426590,-0.301185,,,0,zone_LES_GRAPPES,,0
LESLANDE,2090,"ROBINIERES",,47.470382,-0.697305,,,0,zone_ROBINIERES,,0
LESLAN-E,8170,"ROBINIERES",,47.470734,-0.697238,,,0,zone_ROBINIERES,,0
LESRIV-E,26528,"LES RIVES",,47.526727,-0.525088,,,0,zone_LES_RIVES,,0
LESRIVES,31416,"LES RIVES",,47.526629,-0.525073,,,0,zone_LES_RIVES,,1
LESROS-E,25672,"LES ROSES",,47.426855,-0.551671,,,0,zone_LES_ROSES,,0
LESROSES,5502,"LES ROSES",,47.427006,-0.551286,,,0,zone_LES_ROSES,,0
LESSAR-E,23657,"LES ESSARTS",,47.469174,-0.736752,,,0,zone_LES_ESSARTS,,0
LESSARTS,25628,"LES ESSARTS",,47.469109,-0.736688,,,0,zone_LES_ESSARTS,,0
LETAND16,27068,"LETANDUERE",,47.452807,-0.553182,,,0,zone_LETANDUERE,,1
LETAND-E,13125,"LETANDUERE",,47.453051,-0.553304,,,0,zone_LETANDUERE,,1
LEVESQ-E,29876,"LEVESQUE",,47.402159,-0.534444,,,0,zone_LEVESQUE,,1
LEVESQUE,29223,"LEVESQUE",,47.402258,-0.533645,,,0,zone_LEVESQUE,,1
LHOI11-E,19931,"LAC DE MAINE - L'HOIRIE",,47.467138,-0.618478,,,0,zone_LAC_DE_MAINE_-_L'HOIRIE,,1
LHOIRI11,32088,"LAC DE MAINE - L'HOIRIE",,47.467094,-0.618301,,,0,zone_LAC_DE_MAINE_-_L'HOIRIE,,0
LHOIRI-E,7844,"LAC DE MAINE - L'HOIRIE",,47.467094,-0.618301,,,0,zone_LAC_DE_MAINE_-_L'HOIRIE,,0
LICES,11754,"LICES",,47.467037,-0.554543,,,0,zone_LICES,,1
LICES -E,12276,"LICES",,47.466987,-0.554610,,,0,zone_LICES,,1
LICOR-E,66335,"LICORNE",,47.473425,-0.594066,,,0,zone_LICORNE,,0
LICORNE,34563,"LICORNE",,47.473323,-0.593264,,,0,zone_LICORNE,,0
LILAS,6187,"LILAS",,47.459481,-0.662865,,,0,zone_LILAS,,0
LILAS-E,17216,"LILAS",,47.459514,-0.663037,,,0,zone_LILAS,,0
LINOVE-E,7167,"LINO VENTURA",,47.447111,-0.529059,,,0,zone_LINO_VENTURA,,1
LINOVENT,31038,"LINO VENTURA",,47.447568,-0.529182,,,0,zone_LINO_VENTURA,,1
LIZE,14789,"LIZE",,47.486870,-0.573103,,,0,zone_LIZE,,1
LIZE -E,18714,"LIZE",,47.486892,-0.573022,,,0,zone_LIZE,,1
LIZE.,26415,"LIZE",,47.487095,-0.574371,,,0,zone_LIZE,,1
LIZE05-E,27387,"LIZE",,47.486945,-0.574511,,,0,zone_LIZE,,1
LMARZE-E,29867,"HAUTE MARZELLE",,47.342947,-0.529671,,,0,zone_HAUTE_MARZELLE,,0
LMARZELL,2200,"HAUTE MARZELLE",,47.343056,-0.529674,,,0,zone_HAUTE_MARZELLE,,0
LOHUIT,5526,"LORRAINE",,47.470241,-0.547149,,,0,zone_LORRAINE,,1
LOIRE,14252,"LOIRE",,47.418855,-0.523369,,,0,zone_LOIRE,,1
LOIRE -E,30797,"LOIRE",,47.417801,-0.523356,,,0,zone_LOIRE,,1
LOMBARD,43351,"LOMBARDIERES",,47.442537,-0.690425,,,0,zone_LOMBARDIERES,,0
LOMBAR-E,1349,"LOMBARDIERES",,47.442579,-0.690621,,,0,zone_LOMBARDIERES,,0
LORETTE,7966,"LORETTE",,47.451272,-0.548012,,,0,zone_LORETTE,,0
LORETT-E,9272,"LORETTE",,47.451248,-0.547605,,,0,zone_LORETTE,,0
LOR-FO-A,3039,"FOCH MAISON BLEUE",,47.469637,-0.548596,,,0,zone_FOCH_MAISON_BLEUE,,1
LORPLM,22199,"L'OREE",,47.542652,-0.672332,,,0,zone_L'OREE,,0
LORPLM-E,8507,"L'OREE",,47.542740,-0.672236,,,0,zone_L'OREE,,0
LORR3BIS,29230,"LORRAINE",,47.470064,-0.547378,,,0,zone_LORRAINE,,0
LORRAIN1,20636,"LORRAINE",,47.470259,-0.547695,,,0,zone_LORRAINE,,1
LORRAIN2,31902,"LORRAINE",,47.470054,-0.547776,,,0,zone_LORRAINE,,0
LORRTERM,23465,"LORRAINE",,47.470169,-0.547690,,,0,zone_LORRAINE,,1
LOTISS-E,411,"LOTISSEMENT DE VILLEVEQUE",,47.556772,-0.424174,,,0,zone_LOTISSEMENT_DE_VILLEVEQUE,,1
LOTISSEM,29903,"LOTISSEMENT DE VILLEVEQUE",,47.556625,-0.424416,,,0,zone_LOTISSEMENT_DE_VILLEVEQUE,,1
LOUET,10203,"LOUET",,47.412258,-0.523752,,,0,zone_LOUET,,0
LOUET -E,10791,"LOUET",,47.412376,-0.523774,,,0,zone_LOUET,,0
LOUPIN-E,26592,"LOUPINOT",,47.424610,-0.552600,,,0,zone_LOUPINOT,,0
LOUPINO,22893,"LOUPINOT",,47.424568,-0.552577,,,0,zone_LOUPINOT,,0
LTAC-E,242,"BOURG DE SOULAINES",,47.364605,-0.524983,,,0,zone_BOURG_DE_SOULAINES,,0
LTACHON,10237,"BOURG DE SOULAINES",,47.365015,-0.525179,,,0,zone_BOURG_DE_SOULAINES,,0
LUTIN,32534,"LUTIN",,47.475726,-0.534385,,,0,zone_LUTIN,,1
LUTIN -E,485,"LUTIN",,47.475754,-0.534199,,,0,zone_LUTIN,,1
LYCEEJMO,28865,"JEAN MOULIN",,47.492355,-0.551887,,,0,zone_JEAN_MOULIN,,1
LYCJMO-E,6081,"JEAN MOULIN",,47.492264,-0.551824,,,0,zone_JEAN_MOULIN,,1
MA4VE-E,22693,"MAIL DES QUATRE VENTS",,47.531819,-0.528458,,,0,zone_MAIL_DES_QUATRE_VENTS,,0
MACASS-E,8001,"MARY CASSATT",,47.510435,-0.604259,,,0,zone_MARY_CASSATT,,0
MACE,23738,"MACE",,47.476614,-0.532702,,,0,zone_MACE,,1
MACE  -E,24326,"MACE",,47.477055,-0.531756,,,0,zone_MACE,,1
MACURIE,12294,"MARIE CURIE",,47.433397,-0.516557,,,0,zone_MARIE_CURIE,,1
MACURI-E,15853,"MARIE CURIE",,47.433244,-0.517015,,,0,zone_MARIE_CURIE,,1
MADELE-E,10442,"MADELEINE",,47.459063,-0.535533,,,0,zone_MADELEINE,,1
MADELEIN,20411,"MADELEINE",,47.459252,-0.535716,,,0,zone_MADELEINE,,1
MAETUD-E,25699,"POLYTECH ANGERS",,47.480654,-0.594593,,,0,zone_POLYTECH_ANGERS,,1
MAETUDIA,25548,"POLYTECH ANGERS",,47.480576,-0.594594,,,0,zone_POLYTECH_ANGERS,,1
MAI4VEN,30964,"MAIL DES QUATRE VENTS",,47.531792,-0.528499,,,0,zone_MAIL_DES_QUATRE_VENTS,,1
MAIL-HDV,7828,"MAIL",,47.471121,-0.546361,,,0,zone_MAIL,,1
MAILLÉE,356665,"MAILLÉE",,47.485703,-0.392805,,,0,zone_MAILLÉE,,0
MAILLÉ-E,80574,"MAILLÉE",,47.485703,-0.392805,,,0,zone_MAILLÉE,,0
MAIL-NAE,15219,"MAIL",,47.471177,-0.546262,,,0,zone_MAIL,,1
MAIRAV-E,14192,"MAIRIE D'AVRILLE",,47.504941,-0.590761,,,0,zone_MAIRIE_D'AVRILLE,,1
MAIRAVR,11971,"MAIRIE D'AVRILLE",,47.504499,-0.589908,,,0,zone_MAIRIE_D'AVRILLE,,1
MAIRTR-E,3669,"MAIRIE DE TRELAZE",,47.445530,-0.468258,,,0,zone_MAIRIE_DE_TRELAZE,,1
MAIRTREL,26533,"MAIRIE DE TRELAZE",,47.445610,-0.469201,,,0,zone_MAIRIE_DE_TRELAZE,,1
MAISONSR,8771,"MAISONS ROUGES",,47.474479,-0.511912,,,0,zone_MAISONS_ROUGES,,1
MAISRO-E,17645,"MAISONS ROUGES",,47.474449,-0.511906,,,0,zone_MAISONS_ROUGES,,1
MAJUIN5B,39157,"MARECHAL JUIN",,47.449932,-0.567910,,,0,zone_MARECHAL_JUIN,,1
MALAQUAI,38447,"MALAQUAIS",,47.444258,-0.490452,,,0,zone_MALAQUAIS,,1
MALAQU-E,27851,"MALAQUAIS",,47.444053,-0.490085,,,0,zone_MALAQUAIS,,1
MALBOI-E,576278,"MALBOIRE",,47.481728,-0.413421,,,0,zone_MALBOIRE,,0
MALBOIRE,671943,"MALBOIRE",,47.481728,-0.413421,,,0,zone_MALBOIRE,,0
MALEMBAR,753,"ZI TRELAZE - MALEMBARDIERES",,47.451608,-0.473465,,,0,zone_ZI_TRELAZE_-_MALEMBARDIERES,,0
MALEMB-E,1504,"ZI TRELAZE - MALEMBARDIERES",,47.451608,-0.473465,,,0,zone_ZI_TRELAZE_-_MALEMBARDIERES,,0
MALNOUE,193265,"MALNOUE",,47.369400,-0.516510,,,0,zone_MALNOUE,,0
MALNOU-E,863688,"MALNOUE",,47.369330,-0.516440,,,0,zone_MALNOUE,,0
MANSIO-E,211544,"MANSION",,47.477090,-0.587998,,,0,zone_MANSION,,1
MANSION,757176,"MANSION",,47.477105,-0.588258,,,0,zone_MANSION,,1
MAPTCEAR,402751,"MAIRIE DES PONTS DE CE",,47.425322,-0.523518,,,0,zone_MAIRIE_DES_PONTS_DE_CE,,0
MAPTSCE,9963,"MAIRIE DES PONTS DE CE",,47.425322,-0.523518,,,0,zone_MAIRIE_DES_PONTS_DE_CE,,0
MAREJU-E,17469,"MARECHAL JUIN",,47.449675,-0.568117,,,0,zone_MARECHAL_JUIN,,1
MARIAN-E,28799,"MARIANNE",,47.449326,-0.530174,,,0,zone_MARIANNE,,1
MARIANNE,6575,"MARIANNE",,47.450174,-0.531103,,,0,zone_MARIANNE,,1
MARIANSC,304840,"MARIANNE",,47.449840,-0.530030,,,0,zone_MARIANNE,,0
MARMIT-E,266529,"MARMITIÈRE",,47.471053,-0.489579,,,0,zone_MARMITIÈRE,,0
MARMITIE,28460,"MARMITIÈRE",,47.470848,-0.489666,,,0,zone_MARMITIÈRE,,0
MAROTT-E,3203,"MAROTTIERES",,47.536233,-0.568767,,,0,zone_MAROTTIERES,,0
MAROTTIE,10301,"MAROTTIERES",,47.536252,-0.568939,,,0,zone_MAROTTIERES,,0
MARSAU-E,148438,"MARSAULAIE",,47.415033,-0.343629,,,0,zone_MARSAULAIE,,0
MARSAULA,547381,"MARSAULAIE",,47.415512,-0.343678,,,0,zone_MARSAULAIE,,0
MASGEM-E,29461,"MAIRIE DE SAINTE GEMMES",,47.422849,-0.556579,,,0,zone_MAIRIE_DE_SAINTE_GEMMES,,1
MASGEMME,3967,"MAIRIE DE SAINTE GEMMES",,47.422794,-0.556508,,,0,zone_MAIRIE_DE_SAINTE_GEMMES,,1
MASJLI-E,20082,"MAIRIE DE SAINT JEAN DE LINIERES",,47.458630,-0.658984,,,0,zone_MAIRIE_DE_SAINT_JEAN_DE_LINIERES,,0
MASJLIN,20807,"MAIRIE DE SAINT JEAN DE LINIERES",,47.458118,-0.658459,,,0,zone_MAIRIE_DE_SAINT_JEAN_DE_LINIERES,,0
MASSON,12311,"MASSON",,47.531750,-0.567479,,,0,zone_MASSON,,0
MASSON-E,16344,"MASSON",,47.532075,-0.567762,,,0,zone_MASSON,,0
MASTEL-E,17386,"MASTELLE",,47.529445,-0.591995,,,0,zone_MASTELLE,,1
MASTELLE,16341,"MASTELLE",,47.529395,-0.592468,,,0,zone_MASTELLE,,1
MASTSY,460558,"MAIRIE DE SAINT SYLVAIN",,47.519803,-0.471131,,,0,zone_MAIRIE_DE_SAINT_SYLVAIN,,1
MATE25-E,11509,"CHU - HOPITAL",,47.480805,-0.554677,,,0,zone_CHU_-_HOPITAL,,0
MATEC.,9274,"BELLE BEILLE MAISON DE TECHNOPOLE",,47.478330,-0.605115,,,0,zone_BELLE_BEILLE_MAISON_DE_TECHNOPOLE,,1
MATECHNO,29466,"BELLE BEILLE MAISON DE TECHNOPOLE",,47.478603,-0.605689,,,0,zone_BELLE_BEILLE_MAISON_DE_TECHNOPOLE,,1
MATER89,10739,"MARTINIERE",,47.608580,-0.563686,,,0,zone_MARTINIERE,,0
MATERN25,700,"MARTINIERE",,47.608572,-0.563727,,,0,zone_MARTINIERE,,0
MATERNIT,11832,"CHU - HOPITAL",,47.481359,-0.553860,,,0,zone_CHU_-_HOPITAL,,0
MATLN-E,39102,"MAISON DE TECHNOPOLE",,47.479114,-0.605828,,,0,zone_MAISON_DE_TECHNOPOLE,,0
MAUFINE,36835,"MAUFINEE",,47.502337,-0.589056,,,0,zone_MAUFINEE,,1
MAUFIN-E,17293,"MAUFINEE",,47.502612,-0.588847,,,0,zone_MAUFINEE,,1
MAUPER-E,24902,"MAUPERTHUIS",,47.433637,-0.485645,,,0,zone_MAUPERTHUIS,,0
MAUPERTH,5939,"MAUPERTHUIS",,47.433890,-0.485658,,,0,zone_MAUPERTHUIS,,0
MAURIAC,17599,"MALRAUX",,47.457512,-0.473443,,,0,zone_MALRAUX,,1
MAURIA-E,24260,"MALRAUX",,47.457594,-0.473421,,,0,zone_MALRAUX,,1
MBRIAN-E,380053,"MARIUS BRIANT",,47.473981,-0.577487,,,0,zone_MARIUS_BRIANT,,1
MBRIANT,809387,"MARIUS BRIANT",,47.473978,-0.577620,,,0,zone_MARIUS_BRIANT,,1
MEIG34-E,7347,"EGLISE DE LA MEIGNANNE",,47.519706,-0.667614,,,0,zone_EGLISE_DE_LA_MEIGNANNE,,0
MEIGNA34,22128,"EGLISE DE LA MEIGNANNE",,47.519388,-0.667741,,,0,zone_EGLISE_DE_LA_MEIGNANNE,,0
MEIGNA-E,11052,"LA MEIGNANNE",,47.484431,-0.582736,,,0,zone_LA_MEIGNANNE,,1
MEIGNANN,10399,"LA MEIGNANNE",,47.484015,-0.582151,,,0,zone_LA_MEIGNANNE,,1
MELGRA-E,5864,"MELGRANI",,47.477619,-0.592268,,,0,zone_MELGRANI,,0
MELGRANI,9954,"MELGRANI",,47.477821,-0.592097,,,0,zone_MELGRANI,,0
MEMBALZA,949595,"ECOLE BALZAC",,47.556980,-0.672240,,,0,zone_ECOLE_BALZAC,,0
MEMBMA-E,3254,"MAIRIE DE LA MEMBROLLE",,47.560747,-0.672825,,,0,zone_MAIRIE_DE_LA_MEMBROLLE,,0
MEMBRO-E,26396,"BOURG DE LA MEMBROLLE",,47.558428,-0.669731,,,0,zone_BOURG_DE_LA_MEMBROLLE,,0
MEMBROLL,3150,"BOURG DE LA MEMBROLLE",,47.558564,-0.670087,,,0,zone_BOURG_DE_LA_MEMBROLLE,,0
MEMMAIR,4208,"MAIRIE DE LA MEMBROLLE",,47.560846,-0.673030,,,0,zone_MAIRIE_DE_LA_MEMBROLLE,,0
MENA-E,6305,"MENARD",,47.445765,-0.493713,,,0,zone_MENARD,,1
MENARD,20226,"MENARD",,47.445818,-0.493930,,,0,zone_MENARD,,0
MENDES-E,25308,"MENDES FRANCE",,47.472947,-0.545623,,,0,zone_MENDES_FRANCE,,1
MENDESFR,10353,"MENDES FRANCE",,47.472563,-0.546222,,,0,zone_MENDES_FRANCE,,1
MERCIE-E,11750,"MERCIER",,47.492696,-0.458265,,,0,zone_MERCIER,,0
MERCIER,7042,"MERCIER",,47.492657,-0.458593,,,0,zone_MERCIER,,0
MERMO-E,294,"COLLEGE MERMOZ",,47.451790,-0.566839,,,0,zone_COLLEGE_MERMOZ,,1
MICHEL-E,5053,"MICHELET",,47.462893,-0.544211,,,0,zone_MICHELET,,1
MICHELET,28118,"MICHELET",,47.463467,-0.545530,,,0,zone_MICHELET,,1
MILLARDI,28787,"MILLARDIERE",,47.513771,-0.473679,,,0,zone_MILLARDIERE,,1
MILLAR-E,10309,"MILLARDIERE",,47.513916,-0.473749,,,0,zone_MILLARDIERE,,1
MILLCO-E,18612,"MILLOT SCOLAIRE",,47.456686,-0.533362,,,0,zone_MILLOT_SCOLAIRE,,0
MILLOT.,4218,"SAUMUROISE",,47.457295,-0.532525,,,0,zone_SAUMUROISE,,1
MILLOTCO,6963,"MILLOT SCOLAIRE",,47.456170,-0.533747,,,0,zone_MILLOT_SCOLAIRE,,0
MILLOT-E,2926,"SAUMUROISE",,47.456823,-0.531873,,,0,zone_SAUMUROISE,,1
MINDIE-E,452383,"CHEMIN DE LA MINDIERE",,47.440043,-0.630432,,,0,zone_CHEMIN_DE_LA_MINDIERE,,0
MINDIERE,800356,"CHEMIN DE LA MINDIERE",,47.440043,-0.630432,,,0,zone_CHEMIN_DE_LA_MINDIERE,,0
MIRABEAU,9907,"MIRABEAU",,47.460121,-0.550551,,,0,zone_MIRABEAU,,1
MIRABE-E,9418,"MIRABEAU",,47.459562,-0.548963,,,0,zone_MIRABEAU,,1
MIRBEAU,28498,"MIRBEAU",,47.488194,-0.510729,,,0,zone_MIRBEAU,,0
MIRBE-E,15613,"MIRBEAU",,47.488434,-0.510025,,,0,zone_MIRBEAU,,0
MLYAUT-E,22959,"MARECHAL LYAUTEY",,47.491830,-0.583804,,,0,zone_MARECHAL_LYAUTEY,,1
MLYAUTEY,15814,"MARECHAL LYAUTEY",,47.491719,-0.583741,,,0,zone_MARECHAL_LYAUTEY,,1
MOLIER-A,195945,"MOLIERE",,47.474539,-0.555096,,,0,zone_MOLIERE,,1
MOLIER-E,11427,"MOLIERE",,47.474394,-0.555553,,,0,zone_MOLIERE,,1
MOLINE-E,25255,"MOLINERIE",,47.521403,-0.666748,,,0,zone_MOLINERIE,,1
MOLINERI,8190,"MOLINERIE",,47.521470,-0.666839,,,0,zone_MOLINERIE,,1
MON1,7834,"MONGAZON",,47.460958,-0.528672,,,0,zone_MONGAZON,,1
MON1GA-E,1148,"MONGAZON",,47.460899,-0.528431,,,0,zone_MONGAZON,,1
MONCEA-E,810372,"MONCEAU",,47.472414,-0.389703,,,0,zone_MONCEAU,,0
MONCEAU,698763,"MONCEAU",,47.472406,-0.389606,,,0,zone_MONCEAU,,0
MONGEL-E,562960,"LA MONGELIERE",,47.586904,-0.412535,,,0,zone_LA_MONGELIERE,,0
MONGELIE,313094,"LA MONGELIERE",,47.586905,-0.412536,,,0,zone_LA_MONGELIERE,,0
MONNAIE,643212,"LA MONNAIE",,47.445250,-0.512410,,,0,zone_LA_MONNAIE,,0
MONNAI-E,228036,"LA MONNAIE",,47.445060,-0.512710,,,0,zone_LA_MONNAIE,,0
MONNIE-E,2398,"MONNIER",,47.402592,-0.525170,,,0,zone_MONNIER,,1
MONNIER,1582,"MONNIER",,47.403168,-0.525121,,,0,zone_MONNIER,,1
MONOD,15527,"MONOD",,47.478717,-0.636615,,,0,zone_MONOD,,1
MONOD-E,20101,"MONOD",,47.478998,-0.636373,,,0,zone_MONOD,,1
MONPEV-E,4984,"MONPLAISIR",,47.490708,-0.527447,,,0,zone_MONPLAISIR,,0
MONPL AR,2607,"MONPLAISIR",,47.491138,-0.528286,,,0,zone_MONPLAISIR,,1
MONPL22,7399,"MONPLAISIR",,47.491022,-0.527618,,,0,zone_MONPLAISIR,,1
MONPLAIS,4795,"MONPLAISIR",,47.491138,-0.528286,,,0,zone_MONPLAISIR,,1
MONPR -E,15116,"MONPROFIT",,47.474569,-0.567140,,,0,zone_MONPROFIT,,1
MONPRO-E,29694,"MONPROFIT",,47.474303,-0.566699,,,0,zone_MONPROFIT,,1
MONPROF.,29382,"MONPROFIT",,47.474306,-0.566609,,,0,zone_MONPROFIT,,1
MONPROFI,18765,"MONPROFIT",,47.474630,-0.567485,,,0,zone_MONPROFIT,,1
MONTAI-E,19218,"MONTAIGNE",,47.469505,-0.531632,,,0,zone_MONTAIGNE,,0
MONTAIG,11328,"MONTAIGNE",,47.470794,-0.531367,,,0,zone_MONTAIGNE,,1
MONTCA-E,18547,"MONT CASSIN",,47.447147,-0.569532,,,0,zone_MONT_CASSIN,,1
MONTCASB,13329,"MONT CASSIN",,47.447259,-0.569423,,,0,zone_MONT_CASSIN,,1
MONTEC-E,16464,"MONTECLAIR",,47.464442,-0.604694,,,0,zone_MONTECLAIR,,1
MONTECLA,15647,"MONTECLAIR",,47.464486,-0.604837,,,0,zone_MONTECLAIR,,1
MONTEQ-E,19729,"MONTESQUIEU",,47.473785,-0.579827,,,0,zone_MONTESQUIEU,,0
MONTES-E,16671,"MONTESQUIEU",,47.473789,-0.579209,,,0,zone_MONTESQUIEU,,0
MONTESQU,27063,"MONTESQUIEU",,47.473753,-0.580357,,,0,zone_MONTESQUIEU,,0
MONTHIBE,4518,"MONTHIBERT",,47.444679,-0.473730,,,0,zone_MONTHIBERT,,1
MONTHI-E,5661,"MONTHIBERT",,47.444752,-0.473340,,,0,zone_MONTHIBERT,,1
MONTREP,27125,"REPUBLIQUE MONTREUIL",,47.528858,-0.611266,,,0,zone_REPUBLIQUE_MONTREUIL,,1
MOREL,6292,"MOREL",,47.474920,-0.608518,,,0,zone_MOREL,,1
MOREL-E,6741,"MOREL",,47.474965,-0.608518,,,0,zone_MOREL,,1
MORELE-E,4569,"MORELLERIE",,47.451230,-0.544829,,,0,zone_MORELLERIE,,1
MORELI-E,6659,"MORELLERIE",,47.451676,-0.545338,,,0,zone_MORELLERIE,,1
MORELL,10611,"MORELLERIE",,47.452984,-0.545160,,,0,zone_MORELLERIE,,1
MORELL-E,16834,"MORELLERIE",,47.452714,-0.545131,,,0,zone_MORELLERIE,,1
MORELLER,495,"MORELLERIE",,47.451391,-0.544862,,,0,zone_MORELLERIE,,1
MORELLIE,5810,"MORELLERIE",,47.451839,-0.545331,,,0,zone_MORELLERIE,,1
MORET-E,25664,"MORETTE",,47.604381,-0.560982,,,0,zone_MORETTE,,0
MORETT,2925,"MORETTE",,47.604375,-0.561034,,,0,zone_MORETTE,,0
MORICI-E,60430,"MORICIERE",,47.483279,-0.349375,,,0,zone_MORICIERE,,0
MORICIER,359213,"MORICIERE",,47.483260,-0.349395,,,0,zone_MORICIERE,,0
MORLIE-E,18333,"MORLIERE",,47.461572,-0.482373,,,0,zone_MORLIERE,,1
MORLIERE,17581,"MORLIERE",,47.461620,-0.482454,,,0,zone_MORLIERE,,1
MOULANDE,871271,"MOULIN DES LANDES",,47.530230,-0.476770,,,0,zone_MOULIN_DES_LANDES,,0
MOULAN-E,186690,"MOULIN DES LANDES",,47.530290,-0.476450,,,0,zone_MOULIN_DES_LANDES,,0
MOULI-E,512563,"LA MOULINERIE",,47.592285,-0.421724,,,0,zone_LA_MOULINERIE,,0
MOULINER,917875,"LA MOULINERIE",,47.592286,-0.421723,,,0,zone_LA_MOULINERIE,,0
MOULINMA,32614,"MOULIN MARCILLE",,47.433771,-0.500586,,,0,zone_MOULIN_MARCILLE,,1
MOUMA-E,19608,"MOULIN MARCILLE",,47.433771,-0.500586,,,0,zone_MOULIN_MARCILLE,,1
MOUNLYCE,24085,"MOUNIER LYCEE",,47.489496,-0.527073,,,0,zone_MOUNIER_LYCEE,,0
MOUNLY-E,3200,"MOUNIER LYCEE",,47.489200,-0.526925,,,0,zone_MOUNIER_LYCEE,,0
MPLAIS-E,4333,"MONPLAISIR PLESSIS GRAMMOIRE",,47.499931,-0.428712,,,0,zone_MONPLAISIR_PLESSIS_GRAMMOIRE,,0
MPLAISIR,9967,"MONPLAISIR PLESSIS GRAMMOIRE",,47.499440,-0.430310,,,0,zone_MONPLAISIR_PLESSIS_GRAMMOIRE,,0
MURIER,810277,"LE MURIER",,47.514075,-0.376561,,,0,zone_LE_MURIER,,0
MURS  AR,23315,"MURS ERIGNE",,47.395437,-0.555815,,,0,zone_MURS_ERIGNE,,0
MURSERIG,22074,"MURS ERIGNE",,47.395437,-0.555815,,,0,zone_MURS_ERIGNE,,0
MURSHDV,7383,"HOTEL DE VILLE MURS ERIGNE",,47.401878,-0.536493,,,0,zone_HOTEL_DE_VILLE_MURS_ERIGNE,,1
MURSHV-E,30163,"HOTEL DE VILLE MURS ERIGNE",,47.401798,-0.537152,,,0,zone_HOTEL_DE_VILLE_MURS_ERIGNE,,1
MUSSET,21453,"MUSSET",,47.473706,-0.539744,,,0,zone_MUSSET,,1
MUSSET-E,22824,"MUSSET",,47.473635,-0.538723,,,0,zone_MUSSET,,1
MUTUAL-E,25011,"MUTUALITE",,47.455267,-0.540790,,,0,zone_MUTUALITE,,1
MUTUALIT,32144,"MUTUALITE",,47.455794,-0.540841,,,0,zone_MUTUALITE,,1
MVIGNE,358268,"MARCEL VIGNE",,47.475033,-0.582192,,,0,zone_MARCEL_VIGNE,,1
MVIGNE-E,803997,"MARCEL VIGNE",,47.475137,-0.582423,,,0,zone_MARCEL_VIGNE,,1
NARCE,424467,"LYCEE NARCE",,47.448875,-0.429825,,,0,zone_LYCEE_NARCE,,0
NARCE-E,672229,"LYCEE NARCE",,47.448615,-0.431005,,,0,zone_LYCEE_NARCE,,0
NDAMELAC,23915,"NOTRE DAME DU LAC",,47.479624,-0.589700,,,0,zone_NOTRE_DAME_DU_LAC,,1
NDAMLA-E,24523,"NOTRE DAME DU LAC",,47.479662,-0.589609,,,0,zone_NOTRE_DAME_DU_LAC,,1
NONNA-E,8443,"LES NONNAINS",,47.586489,-0.423106,,,0,zone_LES_NONNAINS,,0
NONNAINS,17013,"LES NONNAINS",,47.586937,-0.423694,,,0,zone_LES_NONNAINS,,0
NOUE-E,25919,"NOUELLE",,47.544940,-0.669613,,,0,zone_NOUELLE,,0
NOUELLE,27066,"NOUELLE",,47.544957,-0.669668,,,0,zone_NOUELLE,,0
NOYANT,207687,"NOYANT",,47.563350,-0.545600,,,0,zone_NOYANT,,0
NOYANT-E,832846,"NOYANT",,47.563370,-0.545830,,,0,zone_NOYANT,,0
NOYAU,40211,"LE NOYAU",,47.512669,-0.365496,,,0,zone_LE_NOYAU,,1
NOZAY,32625,"NOZAY",,47.487747,-0.532050,,,0,zone_NOZAY,,1
NOZAY -E,837,"NOZAY",,47.487602,-0.532103,,,0,zone_NOZAY,,1
OFFTOU-E,3776,"OFFICE DE TOURISME",,47.469143,-0.557856,,,0,zone_OFFICE_DE_TOURISME,,1
OFFTOURI,26477,"OFFICE DE TOURISME",,47.468856,-0.558163,,,0,zone_OFFICE_DE_TOURISME,,1
OLIVERAI,4722,"OLIVERAIE",,47.427250,-0.712627,,,0,zone_OLIVERAIE,,0
OLIVER-E,28837,"OLIVERAIE",,47.427343,-0.712434,,,0,zone_OLIVERAIE,,0
OREEBOIS,78210,"L'OREE DES BOIS",,47.514075,-0.378852,,,0,zone_L'OREE_DES_BOIS,,1
ORGEM2-E,29706,"ORGEMONT",,47.447900,-0.541907,,,0,zone_ORGEMONT,,0
ORGEMONT,13154,"ORGEMONT",,47.447042,-0.542536,,,0,zone_ORGEMONT,,0
ORMEAU-E,18420,"ORMEAUX",,47.480066,-0.519096,,,0,zone_ORMEAUX,,1
ORMEAUX,17473,"ORMEAUX",,47.479934,-0.519713,,,0,zone_ORMEAUX,,1
P_ROBI-E,149821,"ROBIN",,47.475854,-0.593849,,,0,zone_ROBIN,,0
P_ROBIN,451188,"ROBIN",,47.475607,-0.593945,,,0,zone_ROBIN,,0
PAGNOL,229552,"PAGNOL",,47.554170,-0.668690,,,0,zone_PAGNOL,,0
PALLAC-E,21568,"PALLACH",,47.445928,-0.558742,,,0,zone_PALLACH,,1
PALLACH,22076,"PALLACH",,47.446187,-0.559085,,,0,zone_PALLACH,,1
PALLUA-E,910130,"PALLUAU",,47.425579,-0.335353,,,0,zone_PALLUAU,,0
PALLUAU,227710,"PALLUAU",,47.425548,-0.335371,,,0,zone_PALLUAU,,0
P-ANJO-E,32708,"PETIT ANJOU",,47.444519,-0.614635,,,0,zone_PETIT_ANJOU,,0
P-ANJOU,24330,"PETIT ANJOU",,47.444996,-0.615243,,,0,zone_PETIT_ANJOU,,0
PAPERIE,25531,"PAPERIE",,47.468743,-0.507152,,,0,zone_PAPERIE,,1
PAPERI-E,26837,"PAPERIE",,47.468490,-0.506503,,,0,zone_PAPERIE,,1
PAQUERAI,88085,"LA PAQUERAIE",,47.480122,-0.405369,,,0,zone_LA_PAQUERAIE,,0
PAQUER-E,22063,"PAQUERETTE",,47.485911,-0.649433,,,0,zone_PAQUERETTE,,0
PAQUERET,38080,"PAQUERETTE",,47.485937,-0.649222,,,0,zone_PAQUERETTE,,0
PAQURA-E,703249,"LA PAQUERAIE",,47.480122,-0.405369,,,0,zone_LA_PAQUERAIE,,0
PARC,2377,"RONCEVAUX",,47.486731,-0.598707,,,0,zone_RONCEVAUX,,0
PARCEX-E,13525,"PARC EXPO CITE DE L'OBJET CONNECTE",,47.497075,-0.493407,,,0,zone_PARC_EXPO_CITE_DE_L'OBJET_CONNECTE,,1
PARCEXPO,12773,"PARC EXPO CITE DE L'OBJET CONNECTE",,47.496829,-0.494207,,,0,zone_PARC_EXPO_CITE_DE_L'OBJET_CONNECTE,,1
PARCGA-E,16675,"GARENNE",,47.478345,-0.576532,,,0,zone_GARENNE,,1
PARCGARE,1681,"GARENNE",,47.478329,-0.576605,,,0,zone_GARENNE,,1
PARMEN-E,7606,"PARMENTIER",,47.453125,-0.518480,,,0,zone_PARMENTIER,,0
PARMENTI,3753,"PARMENTIER",,47.453192,-0.518628,,,0,zone_PARMENTIER,,0
PASQUEL,922466,"LA PASQUELERIE",,47.510712,-0.353206,,,0,zone_LA_PASQUELERIE,,0
PASTEU-E,26529,"PASTEUR",,47.467113,-0.492965,,,0,zone_PASTEUR,,1
PASTEUR,25811,"PASTEUR",,47.466996,-0.493055,,,0,zone_PASTEUR,,1
PATIO,680234,"PATIO",,47.510380,-0.649890,,,0,zone_PATIO,,0
PATIO-E,129375,"PATIO",,47.510640,-0.650680,,,0,zone_PATIO,,0
PATIS,2076,"PATIS ST LEGER",,47.464643,-0.706956,,,0,zone_PATIS_ST_LEGER,,0
PATIS-E,29802,"PATIS ST LEGER",,47.464754,-0.706973,,,0,zone_PATIS_ST_LEGER,,0
PATNOIRE,31383,"PAUL BERT",,47.466268,-0.552492,,,0,zone_PAUL_BERT,,1
PATTON,8271,"PATTON",,47.473446,-0.591465,,,0,zone_PATTON,,0
PATTON-E,9022,"PATTON",,47.473396,-0.591993,,,0,zone_PATTON,,0
PATUR-E,23972,"PATUREAUX",,47.433976,-0.527887,,,0,zone_PATUREAUX,,1
PATUREAU,20375,"PATUREAUX",,47.433854,-0.528006,,,0,zone_PATUREAUX,,1
PAUGE-E,30126,"PAUGER",,47.483180,-0.677822,,,0,zone_PAUGER,,0
PAUGER,23604,"PAUGER",,47.482909,-0.678305,,,0,zone_PAUGER,,0
PAVILL-E,7849,"PAVILLON",,47.465944,-0.620961,,,0,zone_PAVILLON,,0
PAVILLO,3922,"PAVILLON",,47.465397,-0.621824,,,0,zone_PAVILLON,,0
PCOUBE-E,6322,"COUBERTIN",,47.462593,-0.532309,,,0,zone_COUBERTIN,,0
PCOUBERT,27982,"COUBERTIN",,47.462579,-0.532434,,,0,zone_COUBERTIN,,0
PEGARDE,21733,"PETITE GARDE",,47.508362,-0.588087,,,0,zone_PETITE_GARDE,,1
PEGARD-E,22451,"PETITE GARDE",,47.508439,-0.587941,,,0,zone_PETITE_GARDE,,1
PELEGL-E,21148,"EGLISE DE PELLOUAILLES",,47.521531,-0.443999,,,0,zone_EGLISE_DE_PELLOUAILLES,,1
PELEGLIS,27979,"EGLISE DE PELLOUAILLES",,47.521539,-0.444147,,,0,zone_EGLISE_DE_PELLOUAILLES,,1
PELLEG-E,243747,"EGLISE DE PELLOUAILLES",,47.522250,-0.443300,,,0,zone_EGLISE_DE_PELLOUAILLES,,0
PELLER-E,13867,"PELLERINIERE",,47.460237,-0.487363,,,0,zone_PELLERINIERE,,1
PELLERI,10802,"PELLERINIERE",,47.460678,-0.488241,,,0,zone_PELLERINIERE,,1
PELMAI-E,29474,"MAIRIE DE PELLOUAILLES",,47.521765,-0.439388,,,0,zone_MAIRIE_DE_PELLOUAILLES,,0
PELSTADE,26074,"STADE DE PELLOUAILLES",,47.523254,-0.438916,,,0,zone_STADE_DE_PELLOUAILLES,,0
PELSTA-E,22112,"STADE DE PELLOUAILLES",,47.523355,-0.438853,,,0,zone_STADE_DE_PELLOUAILLES,,0
PELUAU,16,"PELUAU",,47.489650,-0.567440,,,0,zone_PELUAU,,1
PELUAU-E,22717,"PELUAU",,47.489468,-0.567824,,,0,zone_PELUAU,,0
PEPIN AR,824564,"GARE DE TRELAZE Arrivée",,47.452049,-0.469085,,,0,zone_GARE_DE_TRELAZE_Arrivée,,1
PEPINI-E,11360,"GARE DE TRELAZE",,47.452096,-0.469624,,,0,zone_GARE_DE_TRELAZE,,1
PEPINIER,10185,"GARE DE TRELAZE",,47.452291,-0.470008,,,0,zone_GARE_DE_TRELAZE,,1
PERAUD-E,16124,"PERRAUDIERE ZA",,47.436282,-0.700197,,,0,zone_PERRAUDIERE_ZA,,0
PERAUDIE,11921,"PERRAUDIERE ZA",,47.436231,-0.700097,,,0,zone_PERRAUDIERE_ZA,,0
PERDRIAU,4087,"PERDRIAU",,47.439552,-0.487529,,,0,zone_PERDRIAU,,0
PERN23-C,31888,"PERRAUDIERE RD 723",,47.438510,-0.698551,,,0,zone_PERRAUDIERE_RD_723,,0
PERRAUDI,3443,"PERRAUDIERE ST LAMBERT",,47.482288,-0.681225,,,0,zone_PERRAUDIERE_ST_LAMBERT,,0
PERRAU-E,19554,"PERRAUDIERE ST LAMBERT",,47.482359,-0.681381,,,0,zone_PERRAUDIERE_ST_LAMBERT,,0
PERRBAUN,998251,"LA PERRAUDIERE",,47.508121,-0.346495,,,0,zone_LA_PERRAUDIERE,,0
PERRIE-E,215108,"PERRIERE",,47.461107,-0.408392,,,0,zone_PERRIERE,,0
PERRIERE,395213,"PERRIÈRE",,47.464759,-0.408258,,,0,zone_PERRIÈRE,,0
PERUSSAI,3238,"PERUSSAIE",,47.466027,-0.596368,,,0,zone_PERUSSAIE,,1
PERUSS-E,4185,"PERUSSAIE",,47.465517,-0.595445,,,0,zone_PERUSSAIE,,1
PETGUICH,607987,"LE PETIT GUICHARD",,47.525999,-0.478804,,,0,zone_LE_PETIT_GUICHARD,,0
PETGUI-E,993424,"LE PETIT GUICHARD",,47.526150,-0.479156,,,0,zone_LE_PETIT_GUICHARD,,0
PETIPA-E,21835,"PETITES PANNES",,47.488753,-0.569805,,,0,zone_PETITES_PANNES,,1
PETIPANN,1322,"PETITES PANNES",,47.488739,-0.569955,,,0,zone_PETITES_PANNES,,1
PETLANDE,11977,"PETITE LANDE",,47.550773,-0.580109,,,0,zone_PETITE_LANDE,,0
PETLAN-E,13939,"PETITE LANDE",,47.554391,-0.581475,,,0,zone_PETITE_LANDE,,0
PETPOR-E,6330,"PETIT PORT",,47.425665,-0.609656,,,0,zone_PETIT_PORT,,1
PETPORT,5677,"PETIT PORT",,47.425920,-0.609581,,,0,zone_PETIT_PORT,,1
PICAS,26555,"PICASSO",,47.452936,-0.523204,,,0,zone_PICASSO,,1
PICAS-E,43700,"PICASSO",,47.452941,-0.521964,,,0,zone_PICASSO,,1
PICASS-E,29141,"REPUBLIQUE TRELAZE",,47.450553,-0.505593,,,0,zone_REPUBLIQUE_TRELAZE,,0
PICASSO,28488,"REPUBLIQUE TRELAZE",,47.450605,-0.505495,,,0,zone_REPUBLIQUE_TRELAZE,,0
PIECE,22296,"PIECE DU MOULIN",,47.507368,-0.596631,,,0,zone_PIECE_DU_MOULIN,,1
PIECE-E,23406,"PIECE DU MOULIN",,47.507349,-0.596998,,,0,zone_PIECE_DU_MOULIN,,1
PIGEONDO,530735,"PIGEON D'OR",,47.469116,-0.389339,,,0,zone_PIGEON_D'OR,,0
PIGEON-E,33819,"PIGEON D'OR",,47.469138,-0.388573,,,0,zone_PIGEON_D'OR,,0
PIGNONIE,26672,"PIGNONIERE",,47.487273,-0.498296,,,0,zone_PIGNONIERE,,1
PIJUIG-E,98449,"PISCINE CAMILLE MUFFAT",,47.534565,-0.616730,,,0,zone_PISCINE_CAMILLE_MUFFAT,,1
PIJUIGI,491332,"PISCINE CAMILLE MUFFAT",,47.534572,-0.617143,,,0,zone_PISCINE_CAMILLE_MUFFAT,,1
PINEAUDI,370444,"LA PINEAUDIERE",,47.593280,-0.536900,,,0,zone_LA_PINEAUDIERE,,0
PINEAU-E,330880,"LA PINEAUDIERE",,47.593260,-0.537110,,,0,zone_LA_PINEAUDIERE,,0
PINELI-E,90368,"PINELIER",,47.523123,-0.743214,,,0,zone_PINELIER,,1
PINELIER,808769,"PINELIER",,47.522993,-0.743117,,,0,zone_PINELIER,,1
PINSON-E,24131,"PINSONS",,47.472597,-0.630262,,,0,zone_PINSONS,,0
PINSONS,23478,"PINSONS",,47.472502,-0.630118,,,0,zone_PINSONS,,0
PISCJU-E,6211,"PISCINE CAMILLE MUFFAT",,47.534204,-0.616574,,,0,zone_PISCINE_CAMILLE_MUFFAT,,1
PISCJUIG,6185,"PISCINE CAMILLE MUFFAT",,47.534056,-0.616510,,,0,zone_PISCINE_CAMILLE_MUFFAT,,1
PIVERD-E,31587,"PIVERDIERE",,47.437404,-0.609761,,,0,zone_PIVERDIERE,,1
PIVERDIE,30771,"PIVERDIERE",,47.437669,-0.609674,,,0,zone_PIVERDIERE,,1
PLACEN-E,19486,"PLACE NEY",,47.478535,-0.543271,,,0,zone_PLACE_NEY,,0
PLACENEY,18833,"PLACE NEY",,47.478355,-0.543500,,,0,zone_PLACE_NEY,,0
PLATEF-E,28725,"PLATEAU FLEURI",,47.529884,-0.597765,,,0,zone_PLATEAU_FLEURI,,1
PLATFLEU,14518,"PLATEAU FLEURI",,47.529727,-0.598104,,,0,zone_PLATEAU_FLEURI,,1
PLDULYCE,23588,"PLACE DU LYCEE",,47.466857,-0.544408,,,0,zone_PLACE_DU_LYCEE,,1
PLDULY-E,29899,"PLACE DU LYCEE",,47.466904,-0.544541,,,0,zone_PLACE_DU_LYCEE,,1
PLGBEL-E,386009,"BELLEVUE PLESSIS GRAMMOIRE",,47.504730,-0.440340,,,0,zone_BELLEVUE_PLESSIS_GRAMMOIRE,,0
PLGBELVU,340050,"BELLEVUE PLESSIS GRAMMOIRE",,47.504800,-0.440300,,,0,zone_BELLEVUE_PLESSIS_GRAMMOIRE,,0
PLGRAM-E,18850,"MAIRIE DU PLESSIS GRAMMOIRE",,47.500967,-0.431570,,,0,zone_MAIRIE_DU_PLESSIS_GRAMMOIRE,,0
PLGRAMMO,17275,"MAIRIE DU PLESSIS GRAMMOIRE",,47.500969,-0.431588,,,0,zone_MAIRIE_DU_PLESSIS_GRAMMOIRE,,0
PLMACE,32166,"MAIRIE DU PLESSIS MACE",,47.543858,-0.675127,,,0,zone_MAIRIE_DU_PLESSIS_MACE,,0
PLMACE-E,17244,"MAIRIE DU PLESSIS MACE",,47.544040,-0.674719,,,0,zone_MAIRIE_DU_PLESSIS_MACE,,0
PLOTIN-E,626210,"PLOTINIERE",,47.468818,-0.433327,,,0,zone_PLOTINIERE,,0
PLOTINIE,32677,"PLOTINIERE",,47.468747,-0.433360,,,0,zone_PLOTINIERE,,0
PMONPROF,31850,"MONPROFIT",,47.475619,-0.566948,,,0,zone_MONPROFIT,,0
POINCA-E,19244,"POINCARE",,47.500277,-0.589700,,,0,zone_POINCARE,,1
POINCARE,17808,"POINCARE",,47.499847,-0.589483,,,0,zone_POINCARE,,1
POIREL,14957,"POIREL",,47.461698,-0.562124,,,0,zone_POIREL,,1
POIREL-E,5240,"POIREL",,47.461524,-0.562097,,,0,zone_POIREL,,1
POISSO-E,16364,"COEUR DE MAINE",,47.472554,-0.556806,,,0,zone_COEUR_DE_MAINE,,1
POISSONN,29689,"COEUR DE MAINE",,47.472355,-0.557117,,,0,zone_COEUR_DE_MAINE,,1
POIVRE,690308,"POIVRE",,47.513573,-0.593032,,,0,zone_POIVRE,,1
POIVRE-E,17887,"POIVRE",,47.513531,-0.593113,,,0,zone_POIVRE,,1
POLE49,573557,"POLE 49",,47.489030,-0.491308,,,0,zone_POLE_49,,1
POLIGU-E,85187,"POLIGUET",,47.494530,-0.397327,,,0,zone_POLIGUET,,0
POLIGUET,527584,"POLIGUET",,47.494530,-0.397327,,,0,zone_POLIGUET,,0
POMANJ-E,19679,"POMANJOU",,47.500233,-0.520737,,,0,zone_POMANJOU,,0
POMANJO,18732,"POMANJOU",,47.500206,-0.520834,,,0,zone_POMANJOU,,0
POMONE,14481,"POMONE",,47.481408,-0.574521,,,0,zone_POMONE,,1
POMONE-E,15036,"POMONE",,47.481469,-0.574360,,,0,zone_POMONE,,1
PONTLA-E,16421,"PONT LAITIER",,47.413183,-0.617144,,,0,zone_PONT_LAITIER,,1
PONTLAIT,15506,"PONT LAITIER",,47.413190,-0.617007,,,0,zone_PONT_LAITIER,,1
PONTNO-E,4391,"PONT NOIR",,47.463995,-0.562692,,,0,zone_PONT_NOIR,,1
PONTNOIR,14304,"PONT NOIR",,47.463931,-0.562770,,,0,zone_PONT_NOIR,,1
PONTSC-E,15414,"MAIRIE DES PONTS DE CE",,47.425545,-0.525697,,,0,zone_MAIRIE_DES_PONTS_DE_CE,,1
PONTSCEM,14271,"MAIRIE DES PONTS DE CE",,47.425291,-0.525389,,,0,zone_MAIRIE_DES_PONTS_DE_CE,,1
PORTSG,30148,"LE PORT",,47.421579,-0.573612,,,0,zone_LE_PORT,,0
PORTSG-E,9108,"LE PORT",,47.421520,-0.573959,,,0,zone_LE_PORT,,0
POUIL AR,3580,"POUILLE",,47.432799,-0.532177,,,0,zone_POUILLE,,1
POUILLE,25650,"POUILLE",,47.432913,-0.531831,,,0,zone_POUILLE,,1
PREVERT,646592,"PREVERT",,47.487784,-0.597523,,,0,zone_PREVERT,,0
PRIEURE,18873,"PRIEURE",,47.471893,-0.633591,,,0,zone_PRIEURE,,1
PRIEUR-E,19657,"PRIEURE",,47.471986,-0.633437,,,0,zone_PRIEURE,,1
PRINCE,31844,"PRINCE",,47.389540,-0.525753,,,0,zone_PRINCE,,0
PRINCE-E,25212,"PRINCE",,47.389568,-0.525810,,,0,zone_PRINCE,,0
PROME-E,27692,"PROMENIERS",,47.477372,-0.631353,,,0,zone_PROMENIERS,,1
PROMENIE,26386,"PROMENIERS",,47.477355,-0.631420,,,0,zone_PROMENIERS,,1
PROUD-E,6151,"PROUDHON",,47.461660,-0.603307,,,0,zone_PROUDHON,,0
PROUDH-E,30177,"PROUDHON",,47.461642,-0.603349,,,0,zone_PROUDHON,,1
PROUDHON,29327,"PROUDHON",,47.461217,-0.603846,,,0,zone_PROUDHON,,1
PROVIN-E,17083,"PROVINS",,47.492606,-0.501993,,,0,zone_PROVINS,,1
PROVINS,14341,"PROVINS",,47.492509,-0.502417,,,0,zone_PROVINS,,1
PRTLAU-E,4444,"PORT LAUNAY",,47.520896,-0.521654,,,0,zone_PORT_LAUNAY,,0
PRTLAUNA,20548,"PORT LAUNAY",,47.520720,-0.521565,,,0,zone_PORT_LAUNAY,,0
PRUILL,642291,"PRUILLE",,47.576840,-0.662790,,,0,zone_PRUILLE,,0
PRUILLE,817682,"PLACE DE LA FONTAINE",,47.577093,-0.662803,,,0,zone_PLACE_DE_LA_FONTAINE,,1
PRUILL-E,430244,"PRUILLE",,47.576840,-0.662790,,,0,zone_PRUILLE,,0
PRUNIE-E,27721,"PRUNIERS",,47.449282,-0.602468,,,0,zone_PRUNIERS,,1
PRUNIERS,43576,"PRUNIERS",,47.449115,-0.602741,,,0,zone_PRUNIERS,,1
PTANJO-E,7177,"CROISEE",,47.459032,-0.667486,,,0,zone_CROISEE,,0
PTANJOU,24470,"CROISEE",,47.458930,-0.668178,,,0,zone_CROISEE,,0
PTASSI-E,17550,"POLE TASSIGNY",,47.446489,-0.537224,,,0,zone_POLE_TASSIGNY,,1
PTELANDE,671903,"LA PETITE LANDE",,47.451278,-0.432018,,,0,zone_LA_PETITE_LANDE,,0
PTELAN-E,803685,"LA PETITE LANDE",,47.451188,-0.431885,,,0,zone_LA_PETITE_LANDE,,0
PTFILL-E,19116,"PONT AUX FILLES",,47.512659,-0.515059,,,0,zone_PONT_AUX_FILLES,,0
PTFILLES,1435,"PONT AUX FILLES",,47.512021,-0.514982,,,0,zone_PONT_AUX_FILLES,,0
PTGRCHAM,12601,"PETITS GRANDCHAMPS",,47.463878,-0.714313,,,0,zone_PETITS_GRANDCHAMPS,,0
PTGRCH-E,24018,"PETITS GRANDCHAMPS",,47.463965,-0.714345,,,0,zone_PETITS_GRANDCHAMPS,,0
PTJOUR,18366,"POINT DU JOUR",,47.474387,-0.319791,,,0,zone_POINT_DU_JOUR,,0
PTMONGAZ,27077,"PETIT MONGAZON",,47.486971,-0.483463,,,0,zone_PETIT_MONGAZON,,0
PTMONG-E,6242,"PETIT MONGAZON",,47.486745,-0.483308,,,0,zone_PETIT_MONGAZON,,0
PTMONS-E,337802,"PETIT MONGAZON",,47.484330,-0.484980,,,0,zone_PETIT_MONGAZON,,0
P-VDMA-E,246495,"VAL DE MAINE",,47.443106,-0.613127,,,0,zone_VAL_DE_MAINE,,1
PYRA10-E,31499,"PYRAMIDE",,47.440165,-0.488694,,,0,zone_PYRAMIDE,,0
PYRAM02,23017,"PYRAMIDE",,47.440874,-0.488540,,,0,zone_PYRAMIDE,,1
PYRAM10,1573,"PYRAMIDE",,47.440959,-0.490234,,,0,zone_PYRAMIDE,,0
PYRAM2-E,46871,"PYRAMIDE",,47.440848,-0.488480,,,0,zone_PYRAMIDE,,1
QUANTI-E,83420,"QUANTINIERE",,47.455289,-0.471643,,,0,zone_QUANTINIERE,,1
QUANTIN,17853,"QUANTINIERE",,47.455167,-0.471583,,,0,zone_QUANTINIERE,,1
QVENTS,4688,"QUATRE VENTS",,47.497244,-0.420842,,,0,zone_QUATRE_VENTS,,0
QVENTS-E,15898,"QUATRE VENTS",,47.497124,-0.420842,,,0,zone_QUATRE_VENTS,,0
RABELA-E,28844,"RABELAIS",,47.461602,-0.546921,,,0,zone_RABELAIS,,1
RABELAI,819,"RABELAIS",,47.461734,-0.546920,,,0,zone_RABELAIS,,1
RAINIERE,476568,"RAINIERE",,47.578720,-0.477040,,,0,zone_RAINIERE,,0
RAMON,25600,"RAMON",,47.486629,-0.537928,,,0,zone_RAMON,,1
RAMON -E,7452,"RAMON",,47.486568,-0.538040,,,0,zone_RAMON,,1
RANGEA-E,28686,"RANGEARDIERE",,47.410130,-0.622736,,,0,zone_RANGEARDIERE,,1
RANGEARD,11014,"RANGEARDIERE",,47.410127,-0.622958,,,0,zone_RANGEARDIERE,,1
RAPIDE-E,22324,"RAPIDEX",,47.502754,-0.513859,,,0,zone_RAPIDEX,,0
RAPIDEX,21736,"RAPIDEX",,47.502734,-0.514075,,,0,zone_RAPIDEX,,0
RASPAI-E,14912,"RASPAIL",,47.475055,-0.570126,,,0,zone_RASPAIL,,0
RASPAIL,3803,"RASPAIL",,47.474956,-0.570048,,,0,zone_RASPAIL,,0
RBRIOL-E,8269,"ROUTE DE BRIOLLAY",,47.486260,-0.532830,,,0,zone_ROUTE_DE_BRIOLLAY,,1
RBRIOLLA,24653,"ROUTE DE BRIOLLAY",,47.486367,-0.532903,,,0,zone_ROUTE_DE_BRIOLLAY,,1
RECLAI-E,641741,"RENE CLAIR",,47.536632,-0.621767,,,0,zone_RENE_CLAIR,,1
RECLAIR,461517,"RENE CLAIR",,47.536671,-0.621849,,,0,zone_RENE_CLAIR,,1
RENARD,27566,"RENARDIERE",,47.483876,-0.674078,,,0,zone_RENARDIERE,,0
RENAR-E,19748,"RENARDIERE",,47.483708,-0.674436,,,0,zone_RENARDIERE,,0
RENOIR,26525,"AUGUSTE RENOIR",,47.536063,-0.618538,,,0,zone_AUGUSTE_RENOIR,,1
RENOIR-E,478423,"AUGUSTE RENOIR",,47.536026,-0.618368,,,0,zone_AUGUSTE_RENOIR,,1
RENOU,6625,"RENOU",,47.436874,-0.486776,,,0,zone_RENOU,,0
RENOU-E,4188,"RENOU",,47.437364,-0.486888,,,0,zone_RENOU,,0
REPMON-E,31175,"REPUBLIQUE MONTREUIL",,47.528919,-0.610971,,,0,zone_REPUBLIQUE_MONTREUIL,,1
REPTRE-E,25507,"REPUBLIQUE TRELAZE",,47.450300,-0.504226,,,0,zone_REPUBLIQUE_TRELAZE,,1
REPTRELA,9180,"REPUBLIQUE TRELAZE",,47.450026,-0.504340,,,0,zone_REPUBLIQUE_TRELAZE,,1
REPUBL-E,6777,"REPUBLIQUE",,47.471695,-0.553946,,,0,zone_REPUBLIQUE,,1
REPUBLIQ,30691,"REPUBLIQUE",,47.471066,-0.554018,,,0,zone_REPUBLIQUE,,1
RESIDENC,125095,"RESIDENCE",,47.572810,-0.486930,,,0,zone_RESIDENCE,,0
RESTLA-E,428093,"RESTAURANT JEANNE DE LAVAL",,47.456886,-0.393809,,,0,zone_RESTAURANT_JEANNE_DE_LAVAL,,0
RESTLAVA,675479,"RESTAURANT JEANNE DE LAVAL",,47.456940,-0.393831,,,0,zone_RESTAURANT_JEANNE_DE_LAVAL,,0
RESTUN-E,28833,"RESTAU U",,47.479527,-0.600443,,,0,zone_RESTAU_U,,1
RESTUNIV,27148,"RESTAU U",,47.479193,-0.600159,,,0,zone_RESTAU_U,,1
REUSSI-E,366153,"REUSSIERES",,47.569410,-0.562640,,,0,zone_REUSSIERES,,0
REUSSIER,434069,"REUSSIERES",,47.569550,-0.562720,,,0,zone_REUSSIERES,,0
REVERI-E,13109,"REVERIES",,47.482068,-0.577872,,,0,zone_REVERIES,,1
REVERIES,12326,"REVERIES",,47.482047,-0.578334,,,0,zone_REVERIES,,1
RGILARDI,390494,"ROUTE DES GILARDIERES",,47.385940,-0.564700,,,0,zone_ROUTE_DES_GILARDIERES,,0
RIDEREAU,567791,"RIDEREAU",,47.478000,-0.391116,,,0,zone_RIDEREAU,,0
RIDERE-E,917645,"RIDEREAU",,47.477936,-0.391206,,,0,zone_RIDEREAU,,0
RIMOUX,716161,"RIMOUX",,47.475938,-0.355971,,,0,zone_RIMOUX,,0
RIMOUX-E,644943,"RIMOUX",,47.475917,-0.355832,,,0,zone_RIMOUX,,0
RIOTTEAU,29013,"RIOTTEAU",,47.443910,-0.498808,,,0,zone_RIOTTEAU,,0
RIOTTE-E,6695,"RIOTTEAU",,47.443845,-0.498717,,,0,zone_RIOTTEAU,,0
RIPOLE-E,5826,"RIPOLLET",,47.511155,-0.588417,,,0,zone_RIPOLLET,,1
RIPOLLE,22179,"RIPOLLET",,47.510868,-0.588795,,,0,zone_RIPOLLET,,1
RIVET,5205,"RIVET",,47.436692,-0.516354,,,0,zone_RIVET,,1
RIVET-E,5331,"RIVET",,47.436729,-0.515902,,,0,zone_RIVET,,1
RMOINE-E,32116,"ROCHE AUX MOINES",,47.393884,-0.645894,,,0,zone_ROCHE_AUX_MOINES,,0
RMOINES,6489,"ROCHE AUX MOINES",,47.393877,-0.645756,,,0,zone_ROCHE_AUX_MOINES,,0
ROCEPI-E,17525,"ROC EPINE",,47.480272,-0.575826,,,0,zone_ROC_EPINE,,1
ROCEPINE,636,"ROC EPINE",,47.480288,-0.575887,,,0,zone_ROC_EPINE,,1
ROCHE-E,20309,"LA ROCHETTE",,47.528702,-0.751212,,,0,zone_LA_ROCHETTE,,0
ROCHEF-E,13000,"LA ROCHEFOUCAULD",,47.479395,-0.556720,,,0,zone_LA_ROCHEFOUCAULD,,1
ROCHEFOU,6793,"LA ROCHEFOUCAULD",,47.478899,-0.557006,,,0,zone_LA_ROCHEFOUCAULD,,1
ROCHETTE,22371,"LA ROCHETTE",,47.528636,-0.751075,,,0,zone_LA_ROCHETTE,,0
ROCHMA-E,370620,"ROCHE MAROTTE",,47.447420,-0.519360,,,0,zone_ROCHE_MAROTTE,,0
ROCHMAR,573094,"ROCHE MAROTTE",,47.447530,-0.519330,,,0,zone_ROCHE_MAROTTE,,0
RODIN,12656,"RODIN",,47.475971,-0.625645,,,0,zone_RODIN,,1
RODIN -E,13309,"RODIN",,47.476076,-0.625733,,,0,zone_RODIN,,1
ROFOUL-E,627992,"LA ROCHE FOULQUES",,47.575840,-0.454840,,,0,zone_LA_ROCHE_FOULQUES,,0
ROFOULQ,55701,"LA ROCHE FOULQUES",,47.575750,-0.454990,,,0,zone_LA_ROCHE_FOULQUES,,0
ROIPOLO,883602,"ROI DE POLOGNE",,47.469545,-0.561275,,,0,zone_ROI_DE_POLOGNE,,0
ROMA-AD,28445,"SAINTE GEMMES - ROCHE MORNA",,47.420300,-0.581543,,,0,zone_SAINTE_GEMMES_-_ROCHE_MORNA,,0
ROMAB-E,78271,"ROMANERIE",,47.484534,-0.508057,,,0,zone_ROMANERIE,,0
ROMABLD,84626,"ROMANERIE",,47.484597,-0.507800,,,0,zone_ROMANERIE,,0
ROMOR AR,17830,"SAINTE GEMMES - ROCHE MORNA",,47.420299,-0.581463,,,0,zone_SAINTE_GEMMES_-_ROCHE_MORNA,,1
ROMORNA,32360,"SAINTE GEMMES - ROCHE MORNA",,47.420320,-0.581281,,,0,zone_SAINTE_GEMMES_-_ROCHE_MORNA,,1
RONCERAY,10261,"RONCERAY",,47.529600,-0.564904,,,0,zone_RONCERAY,,1
RONCER-E,20665,"RONCERAY",,47.529993,-0.565357,,,0,zone_RONCERAY,,1
RONCIE-E,17649,"RONCIERES",,47.436057,-0.513627,,,0,zone_RONCIERES,,1
RONCIERE,3607,"RONCIERES",,47.435932,-0.513543,,,0,zone_RONCIERES,,1
ROUAIR-E,20788,"ROUAIRIE",,47.475494,-0.638859,,,0,zone_ROUAIRIE,,1
ROUAIRIE,19971,"ROUAIRIE",,47.475597,-0.638880,,,0,zone_ROUAIRIE,,1
ROUSSI-E,228030,"LA ROUSSIERE",,47.574636,-0.650751,,,0,zone_LA_ROUSSIERE,,0
ROUSSIER,4742,"LA ROUSSIERE",,47.574636,-0.650751,,,0,zone_LA_ROUSSIERE,,0
ROUTE4-E,4312,"ROUTE N 4",,47.441641,-0.492322,,,0,zone_ROUTE_N_4,,0
ROUTEN 4,15621,"ROUTE N 4",,47.441821,-0.492749,,,0,zone_ROUTE_N_4,,0
RTECHA-E,31093,"ROUTE DE CHAMPIGNE",,47.572355,-0.593360,,,0,zone_ROUTE_DE_CHAMPIGNE,,0
RTECHAMP,31470,"ROUTE DE CHAMPIGNE",,47.572273,-0.593387,,,0,zone_ROUTE_DE_CHAMPIGNE,,0
RTEDAN-E,14532,"ROUTE D'ANGERS",,47.425482,-0.556219,,,0,zone_ROUTE_D'ANGERS,,1
RTEDANGE,6743,"ROUTE D'ANGERS",,47.425396,-0.556649,,,0,zone_ROUTE_D'ANGERS,,1
RTEMEI-E,19122,"ROUTE DE LA MEIGNANNE",,47.477764,-0.639492,,,0,zone_ROUTE_DE_LA_MEIGNANNE,,1
RTEMEIGN,18306,"ROUTE DE LA MEIGNANNE",,47.477708,-0.639337,,,0,zone_ROUTE_DE_LA_MEIGNANNE,,1
RTEPAR-E,19337,"ROUTE DE PARIS",,47.489778,-0.507383,,,0,zone_ROUTE_DE_PARIS,,1
RTEPARIS,17574,"ROUTE DE PARIS",,47.489564,-0.508101,,,0,zone_ROUTE_DE_PARIS,,1
RTEROU-E,538444,"ROUTE DE LA ROUSSIERE",,47.571868,-0.650043,,,0,zone_ROUTE_DE_LA_ROUSSIERE,,0
RTEROUSS,50541,"ROUTE DE LA ROUSSIERE",,47.571868,-0.650043,,,0,zone_ROUTE_DE_LA_ROUSSIERE,,0
RTIERCE,409258,"ROUTE DE TIERCE",,47.584220,-0.496800,,,0,zone_ROUTE_DE_TIERCE,,0
RTINARD,9553,"ROCHE TINARD",,47.496397,-0.403759,,,0,zone_ROCHE_TINARD,,0
RTINAR-E,273,"ROCHE TINARD",,47.496071,-0.402313,,,0,zone_ROCHE_TINARD,,0
RTSORG-E,793058,"ROUTE DE SORGES",,47.432110,-0.489480,,,0,zone_ROUTE_DE_SORGES,,0
RTSORGES,228228,"ROUTE DE SORGES",,47.432030,-0.489560,,,0,zone_ROUTE_DE_SORGES,,0
RUAU,279260,"LE RUAU",,47.424131,-0.399233,,,0,zone_LE_RUAU,,0
RUAU-E,343146,"LE RUAU",,47.424100,-0.399142,,,0,zone_LE_RUAU,,0
RUCOURTE,224549,"RUE COURTE",,47.419637,-0.328236,,,0,zone_RUE_COURTE,,0
RUELLE-E,27445,"RUELLES",,47.437320,-0.531430,,,0,zone_RUELLES,,1
RUELLES,26825,"RUELLES",,47.437651,-0.531525,,,0,zone_RUELLES,,1
SABLE-E,19865,"LA SABLE",,47.587057,-0.590420,,,0,zone_LA_SABLE,,0
SABLON-E,28751,"SABLONS",,47.439831,-0.533171,,,0,zone_SABLONS,,1
SABLONS,28098,"SABLONS",,47.439974,-0.533189,,,0,zone_SABLONS,,1
SAECOE-E,487713,"ECOLE ELEMENTAIRE SAVENNIERES",,47.382799,-0.656909,,,0,zone_ECOLE_ELEMENTAIRE_SAVENNIERES,,0
SAECOELE,895663,"ECOLE ELEMENTAIRE SAVENNIERES",,47.382799,-0.656909,,,0,zone_ECOLE_ELEMENTAIRE_SAVENNIERES,,0
SAECOMAT,271580,"ECOLE MATERNELLE SAVENNIERES",,47.384552,-0.659228,,,0,zone_ECOLE_MATERNELLE_SAVENNIERES,,0
SAECOM-E,161008,"ECOLE MATERNELLE SAVENNIERES",,47.384552,-0.659228,,,0,zone_ECOLE_MATERNELLE_SAVENNIERES,,0
SAECOPRI,591978,"ECOLE PRIVEE SAVENNIERES",,47.384487,-0.659171,,,0,zone_ECOLE_PRIVEE_SAVENNIERES,,0
SAICRO-E,20081,"SAINTE CROIX",,47.469940,-0.555085,,,0,zone_SAINTE_CROIX,,1
SAICROIX,18938,"SAINTE CROIX",,47.469964,-0.554283,,,0,zone_SAINTE_CROIX,,1
SAILLE-E,29523,"SAILLERIE",,47.486533,-0.506796,,,0,zone_SAILLERIE,,0
SAJACQ-E,10642,"SAINT JACQUES",,47.473663,-0.572492,,,0,zone_SAINT_JACQUES,,1
SAJACQUE,17939,"SAINT JACQUES",,47.473632,-0.571190,,,0,zone_SAINT_JACQUES,,1
SALET AR,20518,"SALETTE",,47.512525,-0.587112,,,0,zone_SALETTE,,1
SALETT-E,613884,"SALETTE",,47.512674,-0.586868,,,0,zone_SALETTE,,1
SARRCI-E,11756,"CIMETIERE DE SARRIGNE",,47.501459,-0.388097,,,0,zone_CIMETIERE_DE_SARRIGNE,,0
SARRCIME,1249,"CIMETIERE DE SARRIGNE",,47.501488,-0.387446,,,0,zone_CIMETIERE_DE_SARRIGNE,,0
SARRENAR,980819,"RENARDIERES SARRIGNÉ",,47.493465,-0.389127,,,0,zone_RENARDIERES_SARRIGNÉ,,0
SARREN-E,115755,"RENARDIÈRES SARRIGNÉ",,47.493492,-0.389110,,,0,zone_RENARDIÈRES_SARRIGNÉ,,0
SARRIDEP,398822,"SARRIGNE LES PLANTES",,47.502473,-0.379283,,,0,zone_SARRIGNE_LES_PLANTES,,1
SARRIG-E,9431,"SARRIGNE LES PLANTES",,47.502473,-0.379283,,,0,zone_SARRIGNE_LES_PLANTES,,0
SARRIGNE,31023,"SARRIGNE LES PLANTES",,47.502727,-0.378812,,,0,zone_SARRIGNE_LES_PLANTES,,0
SARRMA-E,23555,"MAIRIE DE SARRIGNE",,47.501720,-0.383121,,,0,zone_MAIRIE_DE_SARRIGNE,,0
SARRMAIR,30431,"MAIRIE DE SARRIGNE",,47.501730,-0.383242,,,0,zone_MAIRIE_DE_SARRIGNE,,0
SAULA-E,997892,"LA SAULAIE",,47.528960,-0.487659,,,0,zone_LA_SAULAIE,,0
SAULAIE,530410,"LA SAULAIE",,47.528960,-0.487659,,,0,zone_LA_SAULAIE,,0
SAULAI-E,679503,"SAULAIS",,47.469948,-0.462900,,,0,zone_SAULAIS,,0
SAULAIS,425213,"SAULAIS",,47.470294,-0.461697,,,0,zone_SAULAIS,,0
SAVARY,20832,"SAVARY",,47.473512,-0.542741,,,0,zone_SAVARY,,1
SAVARY-E,22138,"SAVARY",,47.473458,-0.541334,,,0,zone_SAVARY,,1
SAVENNIE,25242,"SAVENNIERES MAIL",,47.383295,-0.655835,,,0,zone_SAVENNIERES_MAIL,,0
SAVGARE,79863,"GARE DE SAVENNIERES",,47.381218,-0.655645,,,0,zone_GARE_DE_SAVENNIERES,,0
SBART AR,16109,"SAINT BARTHELEMY",,47.472638,-0.485837,,,0,zone_SAINT_BARTHELEMY,,0
SBARTHEL,11134,"SAINT BARTHELEMY",,47.472638,-0.485837,,,0,zone_SAINT_BARTHELEMY,,1
SCAMURS,775738,"SCANIA MURS ERIGNE",,47.383820,-0.548770,,,0,zone_SCANIA_MURS_ERIGNE,,0
SCANIA,13638,"SCANIA",,47.493049,-0.522309,,,0,zone_SCANIA,,0
SCANIA-E,14160,"SCANIA",,47.493580,-0.522292,,,0,zone_SCANIA,,0
SCHWALBA,31127,"SCHWALBACH",,47.503826,-0.602299,,,0,zone_SCHWALBACH,,1
SCHWAL-E,32531,"SCHWALBACH",,47.504031,-0.602520,,,0,zone_SCHWALBACH,,1
SCHWE,32302,"SCHWEITZER",,47.482575,-0.522238,,,0,zone_SCHWEITZER,,0
SCHWEI..,14896,"SCHWEITZER",,47.482575,-0.522238,,,0,zone_SCHWEITZER,,0
SCHWEITZ,6816,"MIMOSAS",,47.481606,-0.523282,,,0,zone_MIMOSAS,,1
SCHWTZ-E,8671,"MIMOSAS",,47.481549,-0.523209,,,0,zone_MIMOSAS,,1
SECUSOCI,26877,"SECURITE SOCIALE",,47.469120,-0.540185,,,0,zone_SECURITE_SOCIALE,,1
SECUSO-E,14711,"SECURITE SOCIALE",,47.469017,-0.540062,,,0,zone_SECURITE_SOCIALE,,1
SEMARD,27110,"GARES SEMARD",,47.464677,-0.559997,,,0,zone_GARES_SEMARD,,1
SEPSON-E,26591,"7 SONNETTES",,47.485771,-0.515078,,,0,zone_7_SONNETTES,,1
SEPSONET,12415,"7 SONNETTES",,47.486058,-0.514804,,,0,zone_7_SONNETTES,,1
SEPTSO-E,23713,"SEPT SONNETTES",,47.485860,-0.514679,,,0,zone_SEPT_SONNETTES,,0
SEPTSONN,22929,"SEPT SONNETTES",,47.486752,-0.513545,,,0,zone_SEPT_SONNETTES,,0
SEURAT,8147,"CENTRE COMMERCIAL MOLLIERE",,47.460888,-0.617194,,,0,zone_CENTRE_COMMERCIAL_MOLLIERE,,1
SEURAT-E,30002,"CENTRE COMMERCIAL MOLLIERE",,47.460754,-0.617477,,,0,zone_CENTRE_COMMERCIAL_MOLLIERE,,1
SHEAKS-E,14745,"SHAKESPEARE",,47.461940,-0.612618,,,0,zone_SHAKESPEARE,,1
SHEAKSPE,15855,"SHAKESPEARE",,47.461868,-0.612490,,,0,zone_SHAKESPEARE,,1
SLEZIND,16655,"TRELAZE SAINT LEZIN",,47.450430,-0.488306,,,0,zone_TRELAZE_SAINT_LEZIN,,0
SLEZIN-E,13324,"TRELAZE SAINT LEZIN",,47.450430,-0.488306,,,0,zone_TRELAZE_SAINT_LEZIN,,0
SMATGD-E,737761,"GRANDE RUE",,47.411107,-0.333411,,,0,zone_GRANDE_RUE,,0
SMATGDRU,735252,"GRANDE RUE",,47.411212,-0.333636,,,0,zone_GRANDE_RUE,,0
SMATOF-E,634987,"OFFICE TOURISME ST MATHURIN",,47.409400,-0.322002,,,0,zone_OFFICE_TOURISME_ST_MATHURIN,,0
SMATOFTO,299329,"OFFICE TOURISME ST MATHURIN",,47.409642,-0.321741,,,0,zone_OFFICE_TOURISME_ST_MATHURIN,,0
SOECPR-E,824288,"ECOLE PRIVEE SOUCELLES",,47.568319,-0.419262,,,0,zone_ECOLE_PRIVEE_SOUCELLES,,0
SOECPRIV,973131,"ECOLE PRIVEE SOUCELLES",,47.568319,-0.419262,,,0,zone_ECOLE_PRIVEE_SOUCELLES,,0
SOECPUBL,99939,"ECOLE PUBLIQUE SOUCELLES",,47.571227,-0.421169,,,0,zone_ECOLE_PUBLIQUE_SOUCELLES,,0
SOECPU-E,906211,"ECOLE PUBLIQUE SOUCELLES",,47.571227,-0.421169,,,0,zone_ECOLE_PUBLIQUE_SOUCELLES,,0
SOLAND,31835,"SOLAND",,47.399550,-0.531220,,,0,zone_SOLAND,,1
SOLAND-E,32488,"SOLAND",,47.399461,-0.529531,,,0,zone_SOLAND,,1
SOLELE-E,26456,"SOLEIL LEVANT",,47.484619,-0.517323,,,0,zone_SOLEIL_LEVANT,,1
SOLELEVA,25379,"SOLEIL LEVANT",,47.484642,-0.517563,,,0,zone_SOLEIL_LEVANT,,1
SORGES,27536,"SORGES",,47.431808,-0.485123,,,0,zone_SORGES,,0
SORGES-E,729639,"SORGES",,47.431808,-0.485123,,,0,zone_SORGES,,0
SOUCEL-E,19812,"SOUCELLES",,47.570132,-0.420353,,,0,zone_SOUCELLES,,0
SOUCELLE,1423,"SOUCELLES",,47.569422,-0.420515,,,0,zone_SOUCELLES,,0
SOUCMA-E,465285,"SOUCELLES MAIRIE",,47.571132,-0.420382,,,0,zone_SOUCELLES_MAIRIE,,0
SOUCMAIR,431117,"SOUCELLES MAIRIE",,47.571132,-0.420382,,,0,zone_SOUCELLES_MAIRIE,,0
SOULAI-E,39480,"LE TERTRE SOULAINES",,47.362692,-0.522721,,,0,zone_LE_TERTRE_SOULAINES,,0
SOULAINE,1828,"LE TERTRE SOULAINES",,47.362928,-0.522722,,,0,zone_LE_TERTRE_SOULAINES,,0
SOULAIR,5421,"SOULAIRE",,47.577321,-0.554293,,,0,zone_SOULAIRE,,1
SOULBEAU,584958,"BEAUREPAIRE SOULAIRE",,47.556380,-0.555600,,,0,zone_BEAUREPAIRE_SOULAIRE,,0
SOULBE-E,779714,"BEAUREPAIRE SOULAIRE",,47.556470,-0.555680,,,0,zone_BEAUREPAIRE_SOULAIRE,,0
SOULCHAP,85435,"LES CHAPELLES",,47.577040,-0.544660,,,0,zone_LES_CHAPELLES,,0
SOULCH-E,403251,"LES CHAPELLES",,47.577060,-0.544830,,,0,zone_LES_CHAPELLES,,0
SOUL-E,22770,"SOULAIRE",,47.577525,-0.554177,,,0,zone_SOULAIRE,,1
SOULEC-E,503218,"ECOLE DE SOULAINES",,47.364970,-0.521720,,,0,zone_ECOLE_DE_SOULAINES,,0
SOULECOL,51293,"ECOLE DE SOULAINES",,47.364960,-0.521870,,,0,zone_ECOLE_DE_SOULAINES,,0
SOUZE-E,13244,"PETITE SOUZELLE",,47.549743,-0.563858,,,0,zone_PETITE_SOUZELLE,,0
SOUZELL,11009,"PETITE SOUZELLE",,47.549118,-0.564393,,,0,zone_PETITE_SOUZELLE,,0
SPORBR-E,27038,"SALLE DE SPORT",,47.561846,-0.505354,,,0,zone_SALLE_DE_SPORT,,0
SPORBRIO,8372,"SALLE DE SPORT",,47.561688,-0.505224,,,0,zone_SALLE_DE_SPORT,,0
SPOT,458426,"GERMAINE TILLION",,47.537063,-0.627441,,,0,zone_GERMAINE_TILLION,,1
SPOT-E,914780,"GERMAINE TILLION",,47.536788,-0.627853,,,0,zone_GERMAINE_TILLION,,1
STADE,11605,"STADE DE SAINT BARTHELEMY",,47.461331,-0.492101,,,0,zone_STADE_DE_SAINT_BARTHELEMY,,1
STADE-E,12422,"STADE DE SAINT BARTHELEMY",,47.461263,-0.491890,,,0,zone_STADE_DE_SAINT_BARTHELEMY,,1
STAUBI-E,31700,"FOCH SAINT AUBIN",,47.468118,-0.550993,,,0,zone_FOCH_SAINT_AUBIN,,1
STAUBIN,22468,"FOCH SAINT AUBIN",,47.468599,-0.549997,,,0,zone_FOCH_SAINT_AUBIN,,1
STEMAR-E,11224,"JOSEPH WRESINSKI",,47.484076,-0.559320,,,0,zone_JOSEPH_WRESINSKI,,1
STEMARI,3210,"JOSEPH WRESINSKI",,47.484631,-0.559286,,,0,zone_JOSEPH_WRESINSKI,,0
STEMELAI,787343,"SAINT MELAINE",,47.370530,-0.496340,,,0,zone_SAINT_MELAINE,,0
STEXUP-E,15821,"SAINT EXUPERY",,47.468058,-0.537340,,,0,zone_SAINT_EXUPERY,,1
STEXUPER,22347,"SAINT EXUPERY",,47.467836,-0.536567,,,0,zone_SAINT_EXUPERY,,1
STGILL-E,30071,"SAINT GILLES PLESSIS GRAMMOIRE",,47.495026,-0.431752,,,0,zone_SAINT_GILLES_PLESSIS_GRAMMOIRE,,0
STGILLES,17692,"SAINT GILLES PLESSIS GRAMMOIRE",,47.495171,-0.432123,,,0,zone_SAINT_GILLES_PLESSIS_GRAMMOIRE,,0
STJOS-E,14109,"SAINT JOSEPH",,47.464781,-0.541065,,,0,zone_SAINT_JOSEPH,,1
STJOSEP,23613,"SAINT JOSEPH",,47.464920,-0.541327,,,0,zone_SAINT_JOSEPH,,1
STLAUD,248626,"SAINT LAUD",,47.417730,-0.522510,,,0,zone_SAINT_LAUD,,0
STLAURE,12804,"STADE RAYMOND KOPA",,47.461318,-0.531138,,,0,zone_STADE_RAYMOND_KOPA,,1
STLAUR-E,26259,"STADE RAYMOND KOPA",,47.461444,-0.531614,,,0,zone_STADE_RAYMOND_KOPA,,1
STLEGMAI,301813,"MAIRIE DE SAINT LEGER DES BOIS",,47.459128,-0.709932,,,0,zone_MAIRIE_DE_SAINT_LEGER_DES_BOIS,,1
STLEGM-E,719471,"MAIRIE DE SAINT LEGER DES BOIS",,47.459121,-0.710009,,,0,zone_MAIRIE_DE_SAINT_LEGER_DES_BOIS,,1
STLEMO-E,891148,"SAINT LEGER MOULIN",,47.461576,-0.707945,,,0,zone_SAINT_LEGER_MOULIN,,0
STLEMOUL,206131,"SAINT LEGER MOULIN",,47.461550,-0.707944,,,0,zone_SAINT_LEGER_MOULIN,,1
STLEOB-E,6958,"SAINT LEONARD",,47.459529,-0.521975,,,0,zone_SAINT_LEONARD,,1
STLEONA.,7908,"SAINT LEONARD",,47.459767,-0.521068,,,0,zone_SAINT_LEONARD,,1
STLEONCB,11495,"SAINT LEONARD",,47.459613,-0.522077,,,0,zone_SAINT_LEONARD,,1
STLEON-E,7367,"SAINT LEONARD",,47.459783,-0.520866,,,0,zone_SAINT_LEONARD,,1
STLOU-E,35907,"SAINT LOUIS",,47.487749,-0.586682,,,0,zone_SAINT_LOUIS,,0
STLOUIS,16220,"SAINT LOUIS",,47.487543,-0.586595,,,0,zone_SAINT_LOUIS,,0
STMANS,10056,"BANCHAIS",,47.485886,-0.512371,,,0,zone_BANCHAIS,,1
STMANS-E,8978,"BANCHAIS",,47.485539,-0.511835,,,0,zone_BANCHAIS,,0
STMART-E,1531,"BOURG DE SAINT MARTIN",,47.431384,-0.703059,,,0,zone_BOURG_DE_SAINT_MARTIN,,0
STMARTIN,16698,"BOURG DE SAINT MARTIN",,47.431286,-0.703846,,,0,zone_BOURG_DE_SAINT_MARTIN,,0
STNICOLA,31139,"SAINT NICOLAS",,47.473692,-0.577928,,,0,zone_SAINT_NICOLAS,,0
STRAS2,24345,"STRASBOURG",,47.457287,-0.554566,,,0,zone_STRASBOURG,,1
STRAS2-E,23061,"STRASBOURG",,47.457130,-0.554298,,,0,zone_STRASBOURG,,1
STSMAI-E,753560,"MAIRIE DE SAINT SYLVAIN",,47.520930,-0.471060,,,0,zone_MAIRIE_DE_SAINT_SYLVAIN,,1
STSMAIR,833473,"MAIRIE DE SAINT SYLVAIN",,47.520928,-0.471064,,,0,zone_MAIRIE_DE_SAINT_SYLVAIN,,1
STSYCH-A,701827,"SAINT SYLVAIN",,47.525217,-0.460957,,,0,zone_SAINT_SYLVAIN,,1
STSYCHVE,74046,"SAINT SYLVAIN",,47.525148,-0.460816,,,0,zone_SAINT_SYLVAIN,,1
STSY-D-E,178250,"SAINT SYLVAIN INTERMEDIAIRE",,47.512098,-0.471689,,,0,zone_SAINT_SYLVAIN_INTERMEDIAIRE,,0
STSYL-AR,397,"CARREAUX",,47.512697,-0.471042,,,0,zone_CARREAUX,,0
STSYLVAI,32055,"CARREAUX",,47.512096,-0.471689,,,0,zone_CARREAUX,,1
STTERESE,2068,"SAINTE THERESE",,47.480856,-0.564233,,,0,zone_SAINTE_THERESE,,1
STTHER-E,7404,"SAINTE THERESE",,47.480601,-0.564249,,,0,zone_SAINTE_THERESE,,1
TALET,364496,"TALET",,47.476387,-0.547619,,,0,zone_TALET,,1
TALET -E,29468,"TALET",,47.476673,-0.547270,,,0,zone_TALET,,0
TANCE-E,25473,"TANCELLERIE",,47.515983,-0.663700,,,0,zone_TANCELLERIE,,0
TANCELL,29482,"TANCELLERIE",,47.515981,-0.663664,,,0,zone_TANCELLERIE,,0
TARTEL-E,963865,"TARTELUSSE",,47.558783,-0.437558,,,0,zone_TARTELUSSE,,0
TARTELUS,653022,"TARTELUSSE",,47.558783,-0.437558,,,0,zone_TARTELUSSE,,0
TARTIFUM,642173,"TARTIFUME",,47.555113,-0.447288,,,0,zone_TARTIFUME,,0
TASSIG-E,10656,"POLE TASSIGNY",,47.446509,-0.537141,,,0,zone_POLE_TASSIGNY,,1
TEMPLE,128919,"LE TEMPLE",,47.489330,-0.428570,,,0,zone_LE_TEMPLE,,0
TEMPLE-E,986897,"LE TEMPLE",,47.489310,-0.428420,,,0,zone_LE_TEMPLE,,0
TERNEI-E,3391,"TERNIERE",,47.505664,-0.593272,,,0,zone_TERNIERE,,1
TERNIERE,304,"TERNIERE",,47.505715,-0.592724,,,0,zone_TERNIERE,,1
THOMAS-E,18250,"THOMASSERIE",,47.461753,-0.625278,,,0,zone_THOMASSERIE,,0
THOMASS,27878,"THOMASSERIE",,47.461760,-0.625347,,,0,zone_THOMASSERIE,,0
TINELL-E,996881,"TINELLIERE",,47.483700,-0.431450,,,0,zone_TINELLIERE,,0
TINELLIE,794659,"TINELLIERE",,47.483750,-0.431730,,,0,zone_TINELLIERE,,0
TOURAI-E,25515,"TOURAINE",,47.539122,-0.435361,,,0,zone_TOURAINE,,0
TOURAINE,26936,"TOURAINE",,47.538988,-0.435406,,,0,zone_TOURAINE,,0
TRELA AR,29269,"TRELAZE QUANTINIERE",,47.459836,-0.475596,,,0,zone_TRELAZE_QUANTINIERE,,1
TRELAZE,25775,"TRELAZE QUANTINIERE",,47.458801,-0.474381,,,0,zone_TRELAZE_QUANTINIERE,,1
TRELCH-E,816825,"CHEVALLERIE 45",,47.446029,-0.458667,,,0,zone_CHEVALLERIE_45,,0
TRELCHEV,91830,"CHEVALLERIE 45",,47.446063,-0.458687,,,0,zone_CHEVALLERIE_45,,0
TRINITE,14286,"TRINITE",,47.475264,-0.562651,,,0,zone_TRINITE,,1
TRINIT-E,29503,"TRINITE",,47.475147,-0.561754,,,0,zone_TRINITE,,1
TROIPA-E,22352,"TROIS PAROISSES",,47.441730,-0.534643,,,0,zone_TROIS_PAROISSES,,1
TROPAROI,30515,"TROIS PAROISSES",,47.441943,-0.534623,,,0,zone_TROIS_PAROISSES,,1
TUFFIE-E,818343,"LA TUFFIERE",,47.503213,-0.376471,,,0,zone_LA_TUFFIERE,,0
TUFFIERE,132042,"LA TUFFIERE",,47.503211,-0.376686,,,0,zone_LA_TUFFIERE,,0
TURMIN-E,393447,"LA TURMINIERE",,47.566820,-0.545780,,,0,zone_LA_TURMINIERE,,0
TURMINIE,2038,"LA TURMINIERE",,47.566760,-0.545550,,,0,zone_LA_TURMINIERE,,0
TURNER-E,113994,"TURNER",,47.511470,-0.598800,,,0,zone_TURNER,,0
UNION,2517,"UNION",,47.519612,-0.475298,,,0,zone_UNION,,1
UNION-E,2651,"UNION",,47.519613,-0.475215,,,0,zone_UNION,,1
VAILLA-E,15274,"VAILLANTE",,47.485347,-0.533408,,,0,zone_VAILLANTE,,1
VAILLANT,14457,"VAILLANTE",,47.485275,-0.533529,,,0,zone_VAILLANTE,,1
VALDE AR,13450,"VAL DE MAINE",,47.443102,-0.612410,,,0,zone_VAL_DE_MAINE,,1
VALDEMAI,31960,"VAL DE MAINE",,47.443041,-0.612840,,,0,zone_VAL_DE_MAINE,,1
VALEO,20234,"VALEO",,47.502095,-0.516708,,,0,zone_VALEO,,1
VALEO -E,20887,"VALEO",,47.501968,-0.517164,,,0,zone_VALEO,,1
VALHAUY,7522,"VALENTIN HAUY",,47.485780,-0.555996,,,0,zone_VALENTIN_HAUY,,1
VALHUY-E,4497,"VALENTIN HAUY",,47.486018,-0.555673,,,0,zone_VALENTIN_HAUY,,1
VALINI-E,347379,"PETITES VALINIERES",,47.506720,-0.444440,,,0,zone_PETITES_VALINIERES,,0
VALINIER,69725,"PETITES VALINIERES",,47.506790,-0.444390,,,0,zone_PETITES_VALINIERES,,0
VALLO,23454,"VALLON",,47.463644,-0.602722,,,0,zone_VALLON,,1
VALLO-E,21364,"VALLON",,47.463526,-0.602549,,,0,zone_VALLON,,1
VALOR,30790,"AVRILLE VAL D'OR",,47.484711,-0.584073,,,0,zone_AVRILLE_VAL_D'OR,,1
VALOR-E,32097,"AVRILLE VAL D'OR",,47.484829,-0.585398,,,0,zone_AVRILLE_VAL_D'OR,,1
VANDE-E,90420,"VANDELLANT",,47.478285,-0.520932,,,0,zone_VANDELLANT,,1
VANDEL,63584,"VANDELLANT",,47.478044,-0.520981,,,0,zone_VANDELLANT,,1
VANRIE,23633,"LA VENRIE",,47.421354,-0.569932,,,0,zone_LA_VENRIE,,0
VANRIE-E,13574,"LA VENRIE",,47.421405,-0.570510,,,0,zone_LA_VENRIE,,0
VARENN-E,10527,"VARENNES",,47.565925,-0.504505,,,0,zone_VARENNES,,0
VAUBA2-E,18400,"VAUBAN",,47.459995,-0.560745,,,0,zone_VAUBAN,,1
VAUBAN,16296,"VAUBAN",,47.460240,-0.560883,,,0,zone_VAUBAN,,1
VAUGA6,7338,"VAUGAREAU",,47.483668,-0.528704,,,0,zone_VAUGAREAU,,1
VAUGA6-E,8024,"VAUGAREAU",,47.483445,-0.528286,,,0,zone_VAUGAREAU,,1
VAUGAREA,31184,"VAUGAREAU",,47.482736,-0.526722,,,0,zone_VAUGAREAU,,0
VAURAG-E,22290,"VAURAGERE",,47.472895,-0.635587,,,0,zone_VAURAGERE,,1
VAURAGER,21571,"VAURAGERE",,47.472835,-0.635421,,,0,zone_VAURAGERE,,1
VDLOIRE,6075,"VAL DE LOIRE",,47.449043,-0.513641,,,0,zone_VAL_DE_LOIRE,,1
VDLOIR-E,32158,"VAL DE LOIRE",,47.448911,-0.513421,,,0,zone_VAL_DE_LOIRE,,1
VEAUDO-E,53114,"VEAU DORE",,47.476558,-0.413412,,,0,zone_VEAU_DORE,,0
VEAUDORE,93934,"VEAU DORE",,47.476118,-0.413587,,,0,zone_VEAU_DORÉ,,0
VEILLE-E,184735,"VEILLEROT",,47.521310,-0.472200,,,0,zone_VEILLEROT,,0
VEILLERO,203459,"VEILLEROT",,47.521300,-0.472550,,,0,zone_VEILLEROT,,0
VENAIS-E,6725,"VENAISERIE",,47.470814,-0.489655,,,0,zone_VENAISERIE,,1
VENAISER,5844,"VENAISERIE",,47.471027,-0.489641,,,0,zone_VENAISERIE,,1
VENSCO,863100,"VENAISERIE COLLEGE",,47.471672,-0.486163,,,0,zone_VENAISERIE_COLLEGE,,0
VERDUN,31885,"SAINT BARTHELEMY VERDUN",,47.468180,-0.493230,,,0,zone_SAINT_BARTHELEMY_VERDUN,,1
VERDUN-E,32668,"SAINT BARTHELEMY VERDUN",,47.468466,-0.492817,,,0,zone_SAINT_BARTHELEMY_VERDUN,,1
VERIGNE,12319,"VERIGNE",,47.588251,-0.493617,,,0,zone_VERIGNE,,0
VERIGN-E,24724,"VERIGNE",,47.588282,-0.493522,,,0,zone_VERIGNE,,0
VERN-ARA,62000,"AURIOL",,47.491117,-0.565045,,,0,zone_AURIOL,,1
VERN-ARB,81722,"AURIOL",,47.491122,-0.565054,,,0,zone_AURIOL,,1
VERNEA-E,24578,"AURIOL",,47.491289,-0.564964,,,0,zone_AURIOL,,1
VERNEREN,32066,"VERNEAU AQUAVITA (08)",,47.493119,-0.568628,,,0,zone_VERNEAU_AQUAVITA_(08),,1
VERNRE-E,23598,"VERNEAU AQUAVITA (08)",,47.493119,-0.568628,,,0,zone_VERNEAU_AQUAVITA_(08),,1
VERNUIT,2307,"AQUAVITA",,47.493163,-0.565481,,,0,zone_AQUAVITA,,0
VERNUS-E,460891,"VERNUSSON FLORILOIRE",,47.430672,-0.542360,,,0,zone_VERNUSSON_FLORILOIRE,,1
VERNUSSO,32414,"VERNUSSON FLORILOIRE",,47.430548,-0.542305,,,0,zone_VERNUSSON_FLORILOIRE,,1
VERTRA-E,7353,"VERNEAU TRAM",,47.492569,-0.567160,,,0,zone_VERNEAU_TRAM,,1
VHUGO,15227,"VICTOR HUGO MONTREUIL",,47.528250,-0.611802,,,0,zone_VICTOR_HUGO_MONTREUIL,,0
VHUGO-E,7391,"VICTOR HUGO MONTREUIL",,47.528199,-0.611728,,,0,zone_VICTOR_HUGO_MONTREUIL,,0
VHUGOMJ,10228,"VICTOR HUGO MONTREUIL",,47.528206,-0.611746,,,0,zone_VICTOR_HUGO_MONTREUIL,,0
VICT-D,98126,"VICTOR HUGO",,47.523497,-0.467433,,,0,zone_VICTOR_HUGO,,1
VICT-D-E,415331,"VICTOR HUGO",,47.523636,-0.467472,,,0,zone_VICTOR_HUGO,,1
VICTHU-E,7901,"VICTOR HUGO",,47.522160,-0.469509,,,0,zone_VICTOR_HUGO,,0
VICTHUGO,7019,"VICTOR HUGO",,47.522194,-0.469524,,,0,zone_VICTOR_HUGO,,0
VIELLMAI,21047,"VIEILLE MAINE",,47.529868,-0.527759,,,0,zone_VIEILLE_MAINE,,1
VIELMA-E,22163,"VIEILLE MAINE",,47.530020,-0.527767,,,0,zone_VIEILLE_MAINE,,1
VIEUXPOR,876933,"VIEUX PORT",,47.570760,-0.493610,,,0,zone_VIEUX_PORT,,0
VIGNES,18380,"LES VIGNES",,47.408916,-0.626349,,,0,zone_LES_VIGNES,,1
VIGNES-E,19033,"LES VIGNES",,47.408538,-0.626300,,,0,zone_LES_VIGNES,,1
VILBRG-E,645260,"BEAUREGARD",,47.533860,-0.434710,,,0,zone_BEAUREGARD,,0
VILLEC-E,8804,"VILLECHIEN",,47.463248,-0.519546,,,0,zone_VILLECHIEN,,1
VILLECHI,12145,"VILLECHIEN",,47.462614,-0.519707,,,0,zone_VILLECHIEN,,1
VILLEN-E,12314,"VILLENEUVE",,47.508316,-0.434720,,,0,zone_VILLENEUVE,,0
VILLENEU,25376,"VILLENEUVE",,47.508396,-0.435123,,,0,zone_VILLENEUVE,,0
VILLES-E,26023,"VILLESICARD",,47.452427,-0.538360,,,0,zone_VILLESICARD,,0
VILLESIC,8016,"VILLESICARD",,47.452493,-0.538347,,,0,zone_VILLESICARD,,0
VILSAN-E,309,"VILLAGE SANTE",,47.457214,-0.512020,,,0,zone_VILLAGE_SANTE,,0
VILSANTE,17408,"VILLAGE SANTE",,47.457462,-0.512781,,,0,zone_VILLAGE_SANTE,,1
VILVEC-E,16488,"ECOLE DE VILLEVEQUE",,47.560917,-0.421416,,,0,zone_ECOLE_DE_VILLEVEQUE,,1
VILVECOL,28122,"ECOLE DE VILLEVEQUE",,47.560814,-0.421568,,,0,zone_ECOLE_DE_VILLEVEQUE,,1
VILVEQ-E,14981,"MAIRIE DE VILLEVEQUE",,47.559422,-0.422118,,,0,zone_MAIRIE_DE_VILLEVEQUE,,0
VILVEQUE,4402,"MAIRIE DE VILLEVEQUE",,47.559464,-0.422148,,,0,zone_MAIRIE_DE_VILLEVEQUE,,0
VIRELE-E,976747,"VIRELET",,47.478674,-0.340187,,,0,zone_VIRELET,,0
VIRELET,259631,"VIRELET",,47.478724,-0.340330,,,0,zone_VIRELET,,0
VIVIER-E,27166,"VIVIERS",,47.451533,-0.534972,,,0,zone_VIVIERS,,1
VIVIERS,29924,"VIVIERS",,47.451651,-0.535121,,,0,zone_VIVIERS,,1
VOISINAY,896110,"VOISINAY",,47.148946,-0.345451,,,0,zone_VOISINAY,,1
VOLNEY,25948,"VOLNEY",,47.460413,-0.538027,,,0,zone_VOLNEY,,1
VOLNEY-E,29618,"VOLNEY",,47.460609,-0.538604,,,0,zone_VOLNEY,,1
VOLTAI-E,11140,"VOLTAIRE",,47.484582,-0.530974,,,0,zone_VOLTAIRE,,0
VOLTAIR,10823,"VOLTAIRE",,47.484839,-0.531361,,,0,zone_VOLTAIRE,,0
WALCOU-E,20782,"WALCOURT",,47.463359,-0.486528,,,0,zone_WALCOURT,,1
WALCOURT,20031,"WALCOURT",,47.463349,-0.486023,,,0,zone_WALCOURT,,1
WBAMA,1851,"BAMAKO",,47.452442,-0.555862,,,0,zone_BAMAKO,,0
WBAM-E,40910,"BAMAKO",,47.452392,-0.556036,,,0,zone_BAMAKO,,0
WBASC,28556,"BASCULE",,47.508701,-0.591810,,,0,zone_BASCULE,,0
WBAS-E,79692,"BASCULE",,47.508854,-0.591553,,,0,zone_BASCULE,,0
WBRO-E,13554,"BOIS DU ROY",,47.499733,-0.583069,,,0,zone_BOIS_DU_ROY,,0
WBROY,9573,"BOIS DU ROY",,47.499619,-0.583368,,,0,zone_BOIS_DU_ROY,,0
WHSA-E,74471,"HAUTS DE SAINT AUBIN",,47.492218,-0.560439,,,0,zone_HAUTS_DE_SAINT_AUBIN,,0
WHSAU,33727,"HAUTS DE SAINT AUBIN",,47.492106,-0.560261,,,0,zone_HAUTS_DE_SAINT_AUBIN,,0
WIGAN,15554,"WIGAN",,47.459433,-0.608151,,,0,zone_WIGAN,,1
WIGAN-E,16501,"WIGAN",,47.459491,-0.608170,,,0,zone_WIGAN,,1
WJ23-E,13172,"JEAN XXIII",,47.448460,-0.563102,,,0,zone_JEAN_XXIII,,0
WJE23,7983,"JEAN XXIII",,47.448627,-0.562859,,,0,zone_JEAN_XXIII,,0
WJMO-E,72745,"JEAN MOULIN",,47.490524,-0.551927,,,0,zone_JEAN_MOULIN,,0
WJMOU,26583,"JEAN MOULIN",,47.490547,-0.552048,,,0,zone_JEAN_MOULIN,,0
WJVI-E,88442,"JEAN VILAR",,47.444923,-0.562392,,,0,zone_JEAN_VILAR,,0
WJVIL,37737,"JEAN VILAR",,47.444901,-0.562258,,,0,zone_JEAN_VILAR,,0
WPMA-E,53276,"PLATEAU DE MAYENNE",,47.496548,-0.579454,,,0,zone_PLATEAU_DE_MAYENNE,,0
WPMAY,77362,"PLATEAU DE MAYENNE",,47.495708,-0.580245,,,0,zone_PLATEAU_DE_MAYENNE,,0
WSTG-E,45847,"SAINT GILLES",,47.506435,-0.589587,,,0,zone_SAINT_GILLES,,0
WSTGI,59183,"SAINT GILLES",,47.506420,-0.589559,,,0,zone_SAINT_GILLES,,0
WTBO-E,30166,"TERRA BOTANICA",,47.494189,-0.575059,,,0,zone_TERRA_BOTANICA,,1
WTBOT,45969,"TERRA BOTANICA",,47.494084,-0.574792,,,0,zone_TERRA_BOTANICA,,1
WVERN,27317,"VERNEAU TRAM",,47.492420,-0.567420,,,0,zone_VERNEAU_TRAM,,1
YRTEPAR,10653,"ROUTE DE PARIS",,47.489561,-0.508115,,,0,zone_ROUTE_DE_PARIS,,0
ZARTISAN,20846,"ZA FENEU DEPART",,47.579284,-0.591374,,,0,zone_ZA_FENEU_DEPART,,1
ZARTIS-E,14755,"ZONE ARTISANALE",,47.579654,-0.591981,,,0,zone_ZONE_ARTISANALE,,0
ZBRUNE-E,18029,"ZI BRUNELLERIES",,47.434985,-0.614780,,,0,zone_ZI_BRUNELLERIES,,0
ZBRUNELL,2006,"ZI BRUNELLERIES",,47.434985,-0.614780,,,0,zone_ZI_BRUNELLERIES,,0
ZCRXCA-E,17229,"LANGEVIN",,47.518512,-0.612077,,,0,zone_LANGEVIN,,0
ZIBEAUC,23205,"ZI BEAUCOUZE",,47.460001,-0.619361,,,0,zone_ZI_BEAUCOUZE,,0
ZIBEAU-E,19670,"ZI BEAUCOUZE",,47.459976,-0.619300,,,0,zone_ZI_BEAUCOUZE,,0
ZICOPER,389482,"COPERNIC",,47.516862,-0.610413,,,0,zone_COPERNIC,,0
ZPOL49,91599,"POLE 49",,47.489047,-0.490902,,,0,zone_POLE_49,,1
zone_18_JUIN_MONTREUIL,,"18 JUIN MONTREUIL",,47.529604,-0.618096,,,1,,,0
zone_7_SONNETTES,,"7 SONNETTES",,47.486058,-0.514804,,,1,,,0
zone_8_MAI_TRELAZE,,"8 MAI TRELAZE",,47.449529,-0.464958,,,1,,,0
zone_ACACIAS,,"ACACIAS",,47.503739,-0.585677,,,1,,,0
zone_ACADEMIE,,"ACADEMIE",,47.468355,-0.558750,,,1,,,0
zone_AFPA,,"AFPA",,47.471531,-0.522738,,,1,,,0
zone_AIGREFOIN,,"AIGREFOIN",,47.473271,-0.439669,,,1,,,0
zone_ALIENOR_D'AQUITAINE,,"ALIENOR D'AQUITAINE",,47.463010,-0.614874,,,1,,,0
zone_ALLARD,,"ALLARD",,47.449623,-0.538647,,,1,,,0
zone_ALLEMAGNE,,"ALLEMAGNE",,47.528007,-0.599936,,,1,,,0
zone_ALLONNEAU,,"ALLONNEAU",,47.485222,-0.526929,,,1,,,0
zone_ALLUMETTES,,"ALLUMETTES",,47.445142,-0.502213,,,1,,,0
zone_AMIPI,,"AMIPI",,47.463779,-0.626649,,,1,,,0
zone_ANATOLE_FRANCE,,"ANATOLE FRANCE",,47.531356,-0.613717,,,1,,,0
zone_ANDARD_MAIRIE,,"ANDARD MAIRIE",,47.456557,-0.397699,,,1,,,0
zone_ANDRE_BRUEL,,"ANDRE BRUEL",,47.526706,-0.467992,,,1,,,0
zone_ANDRE_LEROY,,"ANDRE LEROY",,47.464710,-0.548259,,,1,,,0
zone_ANGERS_-_ROSERAIE,,"ANGERS - ROSERAIE",,47.444921,-0.551629,,,1,,,0
zone_ANNE_FRANK,,"ANNE FRANK",,47.463559,-0.537668,,,1,,,0
zone_APPENTIS,,"APPENTIS",,47.445471,-0.546247,,,1,,,0
zone_AQUAVITA,,"AQUAVITA",,47.493897,-0.565311,,,1,,,0
zone_AQUAVITA_-_CIRCULAIRE_SENS_A,,"AQUAVITA - CIRCULAIRE SENS A",,47.493401,-0.565330,,,1,,,0
zone_AQUAVITA_-_CIRCULAIRE_SENS_B,,"AQUAVITA - CIRCULAIRE SENS B",,47.493897,-0.565311,,,1,,,0
zone_ARAGON,,"ARAGON",,47.471741,-0.567014,,,1,,,0
zone_ARBORETUM,,"ARBORETUM",,47.449393,-0.544227,,,1,,,0
zone_ARCADES,,"ARCADES",,47.507207,-0.516602,,,1,,,0
zone_ARCEAU,,"ARCEAU",,47.471050,-0.519755,,,1,,,0
zone_ARENA_LOIRE,,"ARENA LOIRE",,47.443490,-0.478239,,,1,,,0
zone_AROBASE,,"AROBASE",,47.464503,-0.531562,,,1,,,0
zone_ARTAUD,,"ARTAUD",,47.434033,-0.610844,,,1,,,0
zone_ATHLETIS,,"ATHLETIS",,47.441681,-0.528078,,,1,,,0
zone_AUBEPINE,,"AUBEPINE",,47.461703,-0.495885,,,1,,,0
zone_AUBERDERIE,,"AUBERDERIE",,47.537970,-0.478530,,,1,,,0
zone_AUBRIAIS,,"AUBRIAIS",,47.516063,-0.667603,,,1,,,0
zone_AUBRY,,"AUBRY",,47.441773,-0.552160,,,1,,,0
zone_AUCHAN,,"AUCHAN",,47.518709,-0.606527,,,1,,,0
zone_AUGUSTE_RENOIR,,"AUGUSTE RENOIR",,47.536063,-0.618368,,,1,,,0
zone_AULNERIE,,"AULNERIE",,47.587410,-0.492940,,,1,,,0
zone_AURIOL,,"AURIOL",,47.491289,-0.564589,,,1,,,0
zone_AUTHION,,"AUTHION",,47.431520,-0.528522,,,1,,,0
zone_AUTRICHE,,"AUTRICHE",,47.523052,-0.609377,,,1,,,0
zone_AUVERGNE,,"AUVERGNE",,47.490211,-0.530079,,,1,,,0
zone_AVALOUP,,"AVALOUP",,47.456850,-0.436967,,,1,,,0
zone_AVENUE_DE_L'EUROPE,,"AVENUE DE L'EUROPE",,47.528246,-0.594825,,,1,,,0
zone_AVICENNE,,"AVICENNE",,47.481310,-0.688481,,,1,,,0
zone_AVRILLE_-_ARDENNE,,"AVRILLE - ARDENNE",,47.512422,-0.595373,,,1,,,0
zone_AVRILLE_ADEZIERE,,"AVRILLE ADEZIERE",,47.504929,-0.604709,,,1,,,0
zone_AVRILLE_VAL_D'OR,,"AVRILLE VAL D'OR",,47.484829,-0.584073,,,1,,,0
zone_BAHONNEAU,,"BAHONNEAU",,47.453073,-0.483161,,,1,,,0
zone_BALLOUR,,"BALLOUR",,47.483196,-0.562431,,,1,,,0
zone_BALUERES,,"BALUERES",,47.377636,-0.524709,,,1,,,0
zone_BALZAC,,"BALZAC",,47.472596,-0.576116,,,1,,,0
zone_BAMAKO,,"BAMAKO",,47.452442,-0.555862,,,1,,,0
zone_BANCHAIS,,"BANCHAIS",,47.485886,-0.511799,,,1,,,0
zone_BARBOTTERIE,,"BARBOTTERIE",,47.400597,-0.524823,,,1,,,0
zone_BARRA,,"BARRA",,47.483829,-0.563788,,,1,,,0
zone_BAS_CHEMIN,,"BAS CHEMIN",,47.424959,-0.384259,,,1,,,0
zone_BAS_MORTIER,,"BAS MORTIER",,47.515382,-0.474505,,,1,,,0
zone_BASCULE,,"BASCULE",,47.508854,-0.591553,,,1,,,0
zone_BASSE_CHESNAIE,,"BASSE CHESNAIE",,47.573732,-0.675781,,,1,,,0
zone_BASSE_LANDE,,"BASSE LANDE",,47.505468,-0.594881,,,1,,,0
zone_BASSE_MARZELLE,,"BASSE MARZELLE",,47.341794,-0.524850,,,1,,,0
zone_BASSES_VALLEES,,"BASSES VALLEES",,47.579260,-0.499701,,,1,,,0
zone_BAUDON,,"BAUDON",,47.539400,-0.579170,,,1,,,0
zone_BAUDRAIRIE,,"BAUDRAIRIE",,47.437923,-0.507132,,,1,,,0
zone_BAUNE_CENTRE_RD_116,,"BAUNE CENTRE RD 116",,47.499406,-0.318355,,,1,,,0
zone_BAUNE_ECOLE_PUBLIQUE,,"BAUNE ECOLE PUBLIQUE",,47.498267,-0.318984,,,1,,,0
zone_BEAU_SOLEIL,,"BEAU SOLEIL",,47.426703,-0.721238,,,1,,,0
zone_BEAUCOUZE_HAUTE_ROCHE,,"BEAUCOUZE HAUTE ROCHE",,47.470316,-0.625114,,,1,,,0
zone_BEAUCOUZE_L'ATOLL,,"BEAUCOUZE L'ATOLL",,47.484244,-0.626442,,,1,,,0
zone_BEAULIEU,,"BEAULIEU",,47.495504,-0.436678,,,1,,,0
zone_BEAUMANOIR,,"BEAUMANOIR",,47.451890,-0.510432,,,1,,,0
zone_BEAUREGARD,,"BEAUREGARD",,47.533860,-0.434710,,,1,,,0
zone_BEAUREPAIRE,,"BEAUREPAIRE",,47.474032,-0.559496,,,1,,,0
zone_BEAUREPAIRE_SOULAIRE,,"BEAUREPAIRE SOULAIRE",,47.556470,-0.555600,,,1,,,0
zone_BEAUVAL,,"BEAUVAL",,47.452808,-0.551240,,,1,,,0
zone_BECKER,,"BECKER",,47.538845,-0.622039,,,1,,,0
zone_BEDAUDIERE,,"BEDAUDIERE",,47.501364,-0.393624,,,1,,,0
zone_BEDIER,,"BEDIER",,47.450626,-0.552284,,,1,,,0
zone_BEL_AIR,,"BEL AIR",,47.529863,-0.606346,,,1,,,0
zone_BEL_OEIL,,"BEL OEIL",,47.427037,-0.556699,,,1,,,0
zone_BELLANGERIE,,"BELLANGERIE",,47.482306,-0.684555,,,1,,,0
zone_BELLE_BEILLE_MAISON_DE_TECHNOPOLE,,"BELLE BEILLE MAISON DE TECHNOPOLE",,47.478603,-0.605115,,,1,,,0
zone_BELLE_MOTTE,,"BELLE MOTTE",,47.531064,-0.516433,,,1,,,0
zone_BELLE_POULE,,"BELLE POULE",,47.428462,-0.527207,,,1,,,0
zone_BELLEBRANCHE,,"BELLEBRANCHE",,47.528223,-0.528222,,,1,,,0
zone_BELLENOUE,,"BELLENOUE",,47.420576,-0.300958,,,1,,,0
zone_BELLEVUE,,"BELLEVUE",,47.448185,-0.506870,,,1,,,0
zone_BELLEVUE_CORNE,,"BELLEVUE CORNE",,47.473574,-0.346331,,,1,,,0
zone_BELLEVUE_PLESSIS_GRAMMOIRE,,"BELLEVUE PLESSIS GRAMMOIRE",,47.504800,-0.440300,,,1,,,0
zone_BERGERIE,,"BERGERIE",,47.487471,-0.471337,,,1,,,0
zone_BERGES_DE_MAINE,,"BERGES DE MAINE",,47.479325,-0.548914,,,1,,,0
zone_BEURRIERE,,"BEURRIERE",,47.497569,-0.589257,,,1,,,0
zone_BIAIS,,"BIAIS",,47.584790,-0.539310,,,1,,,0
zone_BICHON,,"BICHON",,47.479365,-0.563609,,,1,,,0
zone_BIGOT,,"BIGOT",,47.482359,-0.560836,,,1,,,0
zone_BIOPOLE,,"BIOPOLE",,47.482228,-0.496280,,,1,,,0
zone_BIRGE,,"BIRGE",,47.475216,-0.519832,,,1,,,0
zone_BLANDEAU,,"BLANDEAU",,47.457521,-0.543178,,,1,,,0
zone_BLERIOT,,"BLERIOT",,47.486803,-0.563258,,,1,,,0
zone_BLITOURNE,,"BLITOURNE",,47.527416,-0.434127,,,1,,,0
zone_BODINIERE,,"BODINIERE",,47.585330,-0.447780,,,1,,,0
zone_BOIS_DE_L'HOPITAL,,"BOIS DE L'HOPITAL",,47.470590,-0.458930,,,1,,,0
zone_BOIS_DE_POUILLE,,"BOIS DE POUILLE",,47.423298,-0.687619,,,1,,,0
zone_BOIS_DU_ROY,,"BOIS DU ROY",,47.499733,-0.583069,,,1,,,0
zone_BOIS_L'ABBE,,"BOIS L'ABBE",,47.490417,-0.513995,,,1,,,0
zone_BOIS_RINIER,,"BOIS RINIER",,47.476544,-0.497441,,,1,,,0
zone_BOISRAME,,"BOISRAME",,47.478302,-0.584703,,,1,,,0
zone_BON_PASTEUR,,"BON PASTEUR",,47.470473,-0.569689,,,1,,,0
zone_BONNERIE,,"BONNERIE",,47.522710,-0.446310,,,1,,,0
zone_BONPLAND,,"BONPLAND",,47.514576,-0.589749,,,1,,,0
zone_BOREAU,,"BOREAU",,47.475257,-0.546084,,,1,,,0
zone_BOSQUET,,"BOSQUET",,47.409961,-0.524513,,,1,,,0
zone_BOUCHE_THOMAS,,"BOUCHE THOMAS",,47.444795,-0.549992,,,1,,,0
zone_BOUCHEMAINE_CENTRE,,"BOUCHEMAINE CENTRE",,47.421753,-0.610432,,,1,,,0
zone_BOUCHEMAINE_CHANTOURTEAU,,"BOUCHEMAINE CHANTOURTEAU",,47.406133,-0.623156,,,1,,,0
zone_BOUCHEMAINE_PONT,,"BOUCHEMAINE PONT",,47.420657,-0.610389,,,1,,,0
zone_BOULLE,,"BOULLE",,47.486705,-0.628607,,,1,,,0
zone_BOURG,,"BOURG",,47.590755,-0.555265,,,1,,,0
zone_BOURG_DE_LA_MEMBROLLE,,"BOURG DE LA MEMBROLLE",,47.558564,-0.669731,,,1,,,0
zone_BOURG_DE_PAILLE,,"BOURG DE PAILLE",,47.474873,-0.623250,,,1,,,0
zone_BOURG_DE_SAINT_MARTIN,,"BOURG DE SAINT MARTIN",,47.431384,-0.703059,,,1,,,0
zone_BOURG_DE_SOULAINES,,"BOURG DE SOULAINES",,47.365015,-0.524983,,,1,,,0
zone_BOURG_JOLY,,"BOURG JOLY",,47.408738,-0.313220,,,1,,,0
zone_BOURG_LA_CROIX,,"BOURG LA CROIX",,47.450860,-0.523820,,,1,,,0
zone_BOURGONNIER,,"BOURGONNIER",,47.462170,-0.541197,,,1,,,0
zone_BOURRELIERE,,"BOURRELIERE",,47.382110,-0.564070,,,1,,,0
zone_BOURSE,,"BOURSE",,47.442769,-0.495105,,,1,,,0
zone_BOUTEILLERIE,,"BOUTEILLERIE",,47.479850,-0.431870,,,1,,,0
zone_BOUVET,,"BOUVET",,47.563298,-0.675248,,,1,,,0
zone_BOUZINAC,,"BOUZINAC",,47.503303,-0.509742,,,1,,,0
zone_BRARDIERE,,"BRARDIERE",,47.581820,-0.494360,,,1,,,0
zone_BRASSENS,,"BRASSENS",,47.494869,-0.586446,,,1,,,0
zone_BRETEAU,,"BRETEAU",,47.574068,-0.438660,,,1,,,0
zone_BRISEPOTIERE,,"BRISEPOTIERE",,47.479595,-0.527246,,,1,,,0
zone_BROCHONS,,"BROCHONS",,47.421939,-0.327337,,,1,,,0
zone_BUCHETIERE,,"BUCHETIERE",,47.559784,-0.428115,,,1,,,0
zone_CALAIS,,"CALAIS",,47.462177,-0.432464,,,1,,,0
zone_CAMELIA,,"CAMELIA",,47.471340,-0.519018,,,1,,,0
zone_CAMPING_DE_BOUCHEMAINE,,"CAMPING DE BOUCHEMAINE",,47.419394,-0.611424,,,1,,,0
zone_CAMPING_DE_JUIGNE,,"CAMPING DE JUIGNE",,47.537540,-0.616871,,,1,,,0
zone_CAMUS,,"CAMUS",,47.485319,-0.575762,,,1,,,0
zone_CAPUCINS,,"CAPUCINS",,47.487450,-0.554523,,,1,,,0
zone_CARREAUX,,"CARREAUX",,47.512697,-0.471042,,,1,,,0
zone_CARREFOUR_ST_SERGE,,"CARREFOUR ST SERGE",,47.488151,-0.542522,,,1,,,0
zone_CCI,,"CCI",,47.468365,-0.557703,,,1,,,0
zone_CENDREUSE,,"CENDREUSE",,47.422465,-0.384815,,,1,,,0
zone_CENTRE_COMMERCIAL,,"CENTRE COMMERCIAL",,47.437865,-0.526753,,,1,,,0
zone_CENTRE_COMMERCIAL_MOLLIERE,,"CENTRE COMMERCIAL MOLLIERE",,47.460888,-0.617194,,,1,,,0
zone_CENTRE_DE_TRI,,"CENTRE DE TRI",,47.452492,-0.570572,,,1,,,0
zone_CENTRE_EQUESTRE,,"CENTRE EQUESTRE",,47.459573,-0.484585,,,1,,,0
zone_CEVERT,,"CEVERT",,47.446702,-0.543656,,,1,,,0
zone_CEZANNE,,"CEZANNE",,47.469802,-0.491887,,,1,,,0
zone_CHAGALL,,"CHAGALL",,47.560170,-0.677000,,,1,,,0
zone_CHALOUERE,,"CHALOUERE",,47.481957,-0.536081,,,1,,,0
zone_CHAMP_DES_MARTYRS,,"CHAMP DES MARTYRS",,47.490108,-0.582648,,,1,,,0
zone_CHAMP_FLEURI_CANTENAY,,"CHAMP FLEURI CANTENAY",,47.537268,-0.571110,,,1,,,0
zone_CHAMP_FLEURI_FENEU,,"CHAMP FLEURI FENEU",,47.567970,-0.579420,,,1,,,0
zone_CHAMPBOUREAU,,"CHAMPBOUREAU",,47.396629,-0.636675,,,1,,,0
zone_CHAMPDOLLANT,,"CHAMPDOLLANT",,47.556723,-0.561380,,,1,,,0
zone_CHAMPFLEUR,,"CHAMPFLEUR",,47.483016,-0.503809,,,1,,,0
zone_CHAMPS_BLANCS,,"CHAMPS BLANCS",,47.517352,-0.475221,,,1,,,0
zone_CHANTERIE,,"CHANTERIE",,47.470970,-0.628029,,,1,,,0
zone_CHANZY,,"CHANZY",,47.460136,-0.557471,,,1,,,0
zone_CHAPELLE_BELLE_BEILLE,,"CHAPELLE BELLE BEILLE",,47.475803,-0.586044,,,1,,,0
zone_CHAPELLES,,"CHAPELLES",,47.468736,-0.382797,,,1,,,0
zone_CHARLES_PEGUY,,"CHARLES PEGUY",,47.530000,-0.620318,,,1,,,0
zone_CHARNASSERIE,,"CHARNASSERIE",,47.491908,-0.556628,,,1,,,0
zone_CHARRUAU,,"CHARRUAU",,47.373010,-0.509920,,,1,,,0
zone_CHATAIGNERAIE,,"CHATAIGNERAIE",,47.441466,-0.607739,,,1,,,0
zone_CHATAIGNIER,,"CHATAIGNIER",,47.545817,-0.649875,,,1,,,0
zone_CHATEAU,,"CHATEAU",,47.469278,-0.559087,,,1,,,0
zone_CHÂTEAU_DE_BRIANÇON,,"CHÂTEAU DE BRIANÇON",,47.503485,-0.351535,,,1,,,0
zone_CHATEAU_ERIGNE,,"CHATEAU ERIGNE",,47.406508,-0.525782,,,1,,,0
zone_CHATELAIN,,"CHATELAIN",,47.483181,-0.514215,,,1,,,0
zone_CHATENAY,,"CHATENAY",,47.482734,-0.521165,,,1,,,0
zone_CHAUMIERES,,"CHAUMIERES",,47.524435,-0.523245,,,1,,,0
zone_CHEMIN_DE_LA_MINDIERE,,"CHEMIN DE LA MINDIERE",,47.440043,-0.630432,,,1,,,0
zone_CHEMIN_DE_MONGAZON,,"CHEMIN DE MONGAZON",,47.484748,-0.484854,,,1,,,0
zone_CHEMIN_DU_PRE,,"CHEMIN DU PRE",,47.467280,-0.635500,,,1,,,0
zone_CHEMIN_NOIR,,"CHEMIN NOIR",,47.529532,-0.590744,,,1,,,0
zone_CHEMIN_SALETTE,,"CHEMIN SALETTE",,47.424699,-0.388943,,,1,,,0
zone_CHENE_ROND,,"CHENE ROND",,47.395750,-0.536650,,,1,,,0
zone_CHENE_VERT,,"CHENE VERT",,47.470438,-0.514956,,,1,,,0
zone_CHEVALLERIE,,"CHEVALLERIE",,47.554706,-0.659666,,,1,,,0
zone_CHEVALLERIE_45,,"CHEVALLERIE 45",,47.446063,-0.458667,,,1,,,0
zone_CHEVRIERE,,"CHEVRIERE",,47.423934,-0.609147,,,1,,,0
zone_CHOUTEAU,,"CHOUTEAU",,47.446223,-0.496815,,,1,,,0
zone_CHU_-_HOPITAL,,"CHU - HOPITAL",,47.481483,-0.553597,,,1,,,0
zone_CIMETIERE_D'AVRILLE,,"CIMETIERE D'AVRILLE",,47.506595,-0.590449,,,1,,,0
zone_CIMETIERE_DE_L'EST,,"CIMETIERE DE L'EST",,47.472124,-0.527746,,,1,,,0
zone_CIMETIERE_DE_L'OUEST,,"CIMETIERE DE L'OUEST",,47.479301,-0.569693,,,1,,,0
zone_CIMETIERE_DE_SARRIGNE,,"CIMETIERE DE SARRIGNE",,47.501488,-0.387446,,,1,,,0
zone_CIMETIERE_DE_TRELAZE,,"CIMETIERE DE TRELAZE",,47.446408,-0.462376,,,1,,,0
zone_CIMETIERE_DES_PONTS_DE_CE,,"CIMETIERE DES PONTS DE CE",,47.434365,-0.529839,,,1,,,0
zone_CITE_UNIVERSITAIRE,,"CITE UNIVERSITAIRE",,47.478912,-0.597917,,,1,,,0
zone_CITRONNELLE,,"CITRONNELLE",,47.479429,-0.633733,,,1,,,0
zone_CLAIE,,"CLAIE",,47.460740,-0.627047,,,1,,,0
zone_CLARTE,,"CLARTE",,47.454074,-0.481238,,,1,,,0
zone_CLAUDEL,,"CLAUDEL",,47.449935,-0.566175,,,1,,,0
zone_CLAVERIE,,"CLAVERIE",,47.486645,-0.504491,,,1,,,0
zone_CLINIQUE_DE_L'ANJOU,,"CLINIQUE DE L'ANJOU",,47.444483,-0.538709,,,1,,,0
zone_CLINIQUE_SAINT_DIDIER,,"CLINIQUE SAINT DIDIER",,47.485319,-0.587042,,,1,,,0
zone_CLOS_DE_LA_VIGNE,,"CLOS DE LA VIGNE",,47.441623,-0.611197,,,1,,,0
zone_CLOS_DOREAU,,"CLOS DOREAU",,47.496327,-0.425173,,,1,,,0
zone_CLOS_NEUF,,"CLOS NEUF",,47.422480,-0.565427,,,1,,,0
zone_CLOTEAU,,"CLOTEAU",,47.507595,-0.408536,,,1,,,0
zone_CLOUET,,"CLOUET",,47.480613,-0.566179,,,1,,,0
zone_CNFPT,,"CNFPT",,47.472570,-0.599782,,,1,,,0
zone_COEUR_DE_MAINE,,"COEUR DE MAINE",,47.472554,-0.556806,,,1,,,0
zone_COINTREAU,,"COINTREAU",,47.476467,-0.507384,,,1,,,0
zone_COLLEGE_DEBUSSY,,"COLLEGE DEBUSSY",,47.488392,-0.516098,,,1,,,0
zone_COLLEGE_FRANCOIS_VILLON,,"COLLEGE FRANCOIS VILLON",,47.433156,-0.522406,,,1,,,0
zone_COLLEGE_JANEQUIN,,"COLLEGE JANEQUIN",,47.497770,-0.591350,,,1,,,0
zone_COLLEGE_JEAN_ZAY,,"COLLEGE JEAN ZAY",,47.529670,-0.607600,,,1,,,0
zone_COLLEGE_JEANNE_D'ARC,,"COLLEGE JEANNE D'ARC",,47.520260,-0.465560,,,1,,,0
zone_COLLEGE_MERMOZ,,"COLLEGE MERMOZ",,47.451908,-0.566713,,,1,,,0
zone_COLOMBIER,,"COLOMBIER",,47.482568,-0.490415,,,1,,,0
zone_COLTRIE,,"COLTRIE",,47.485475,-0.675876,,,1,,,0
zone_CONSTANT_LEMOINE,,"CONSTANT LEMOINE",,47.471974,-0.542067,,,1,,,0
zone_COPERNIC,,"COPERNIC",,47.516862,-0.610413,,,1,,,0
zone_CORMIERS,,"CORMIERS",,47.458331,-0.515352,,,1,,,0
zone_CORNE_LA_BASCULE,,"CORNE LA BASCULE",,47.472059,-0.339860,,,1,,,0
zone_CORNE_LA_CROIX_VERTE,,"CORNE LA CROIX VERTE",,47.474128,-0.354755,,,1,,,0
zone_CORNE_MAIRIE,,"CORNE MAIRIE",,47.470938,-0.350502,,,1,,,0
zone_CORNÉ_MAIRIE,,"CORNÉ MAIRIE",,47.470972,-0.350576,,,1,,,0
zone_CORZE,,"CORZE",,47.556506,-0.389434,,,1,,,0
zone_COSSE,,"COSSE",,47.438312,-0.553244,,,1,,,0
zone_COSSIERES,,"COSSIERES",,47.525660,-0.447870,,,1,,,0
zone_COTTAGE,,"COTTAGE",,47.494801,-0.515243,,,1,,,0
zone_COUBERTIN,,"COUBERTIN",,47.462593,-0.532309,,,1,,,0
zone_COUREAU,,"COUREAU",,47.420357,-0.368639,,,1,,,0
zone_COUTARDIERE,,"COUTARDIERE",,47.469475,-0.407551,,,1,,,0
zone_CREMAILLÈRE_D'ARGENT,,"CREMAILLÈRE D'ARGENT",,47.465303,-0.433274,,,1,,,0
zone_CRESSONNIERE,,"CRESSONNIERE",,47.474200,-0.492273,,,1,,,0
zone_CRETAUDIERE,,"CRETAUDIERE",,47.475673,-0.366332,,,1,,,0
zone_CRETAUDIÈRE,,"CRETAUDIÈRE",,47.475655,-0.366308,,,1,,,0
zone_CROISEE,,"CROISEE",,47.459032,-0.667486,,,1,,,0
zone_CROISETTE,,"CROISETTE",,47.450950,-0.600174,,,1,,,0
zone_CROIX_BLANCHE,,"CROIX BLANCHE",,47.480846,-0.517169,,,1,,,0
zone_CROIX_CADEAU,,"CROIX CADEAU",,47.520195,-0.608085,,,1,,,0
zone_CROIX_COMBEAU,,"CROIX COMBEAU",,47.454220,-0.408329,,,1,,,0
zone_CROIX_DE_BEAUVAIS,,"CROIX DE BEAUVAIS",,47.611938,-0.585146,,,1,,,0
zone_CROIX_DE_BOIS,,"CROIX DE BOIS",,47.449075,-0.424379,,,1,,,0
zone_CROIX_DE_CHEMINEE,,"CROIX DE CHEMINEE",,47.467733,-0.502891,,,1,,,0
zone_CROIX_DE_SARTHE,,"CROIX DE SARTHE",,47.540082,-0.569944,,,1,,,0
zone_CROIX_DES_FRUX,,"CROIX DES FRUX",,47.503317,-0.690939,,,1,,,0
zone_CROIX_VERTE,,"CROIX VERTE",,47.474017,-0.354801,,,1,,,0
zone_DAGUENET,,"DAGUENET",,47.474815,-0.527974,,,1,,,0
zone_DAGUENIERE_LE_CHENE,,"DAGUENIERE LE CHENE",,47.420266,-0.445447,,,1,,,0
zone_DAGUENIERE_PLACE_DE_L'EGLISE,,"DAGUENIERE PLACE DE L'EGLISE",,47.419372,-0.436588,,,1,,,0
zone_DAGUENIERE_VAL_D'AUTHION,,"DAGUENIERE VAL D'AUTHION",,47.419330,-0.428153,,,1,,,0
zone_DANEMARK,,"DANEMARK",,47.527793,-0.597565,,,1,,,0
zone_DANIEL_GELIN,,"DANIEL GELIN",,47.445148,-0.527000,,,1,,,0
zone_DARWIN,,"DARWIN",,47.474248,-0.604187,,,1,,,0
zone_DAUTEL,,"DAUTEL",,47.442928,-0.483410,,,1,,,0
zone_DAVIERES,,"DAVIERES",,47.583245,-0.477833,,,1,,,0
zone_DE_BEAUVOIR,,"DE BEAUVOIR",,47.529030,-0.614636,,,1,,,0
zone_DE_GAULLE,,"DE GAULLE",,47.453267,-0.478201,,,1,,,0
zone_DE_LATTRE,,"DE LATTRE",,47.453345,-0.541233,,,1,,,0
zone_DE_SERRE,,"DE SERRE",,47.477820,-0.614790,,,1,,,0
zone_DEBUSSY,,"DEBUSSY",,47.488392,-0.515732,,,1,,,0
zone_DELACROIX,,"DELACROIX",,47.454914,-0.528664,,,1,,,0
zone_DELESCLUZE,,"DELESCLUZE",,47.466112,-0.604895,,,1,,,0
zone_DESCAZEAUX,,"DESCAZEAUX",,47.477401,-0.565521,,,1,,,0
zone_DESCAZEAUX_SUB,,"DESCAZEAUX SUB",,47.476940,-0.567432,,,1,,,0
zone_DESJARDINS,,"DESJARDINS",,47.477925,-0.530162,,,1,,,0
zone_DESMAZIERES,,"DESMAZIERES",,47.462652,-0.534564,,,1,,,0
zone_DEUX_VALLEES,,"DEUX VALLEES",,47.567800,-0.499660,,,1,,,0
zone_DIONNEAU,,"DIONNEAU",,47.438847,-0.530022,,,1,,,0
zone_DIONNIERE,,"DIONNIERE",,47.543669,-0.485086,,,1,,,0
zone_DOJO_DAGUERRE,,"DOJO DAGUERRE",,47.446597,-0.506425,,,1,,,0
zone_DOLANTINES,,"DOLANTINES",,47.527920,-0.444950,,,1,,,0
zone_DOMAINE_DES_CHENES,,"DOMAINE DES CHENES",,47.559040,-0.673290,,,1,,,0
zone_DOMAINE_DU_VAL,,"DOMAINE DU VAL",,47.537087,-0.624855,,,1,,,0
zone_DOYENNE,,"DOYENNE",,47.490644,-0.532231,,,1,,,0
zone_DU_BELLAY,,"DU BELLAY",,47.492492,-0.513279,,,1,,,0
zone_DUBE,,"DUBE",,47.415846,-0.523157,,,1,,,0
zone_DUMESNIL,,"DUMESNIL",,47.473810,-0.566978,,,1,,,0
zone_DUMNACUS,,"DUMNACUS",,47.486413,-0.592057,,,1,,,0
zone_DUMONT_D'URVILLE,,"DUMONT D'URVILLE",,47.445181,-0.557190,,,1,,,0
zone_DUNANT,,"DUNANT",,47.484779,-0.525547,,,1,,,0
zone_DURELLERIES_1,,"DURELLERIES 1",,47.428932,-0.641213,,,1,,,0
zone_DURELLERIES_2,,"DURELLERIES 2",,47.431103,-0.641780,,,1,,,0
zone_EBEAUPIN,,"EBEAUPIN",,47.464419,-0.624752,,,1,,,0
zone_EBLE,,"EBLE",,47.455380,-0.566292,,,1,,,0
zone_ECHATS,,"ECHATS",,47.481021,-0.631914,,,1,,,0
zone_ECHMAN,,"ECHMAN",,47.490837,-0.575652,,,1,,,0
zone_ECLATERIES,,"ECLATERIES",,47.451154,-0.519768,,,1,,,0
zone_ECOLE_ACCUEIL_VILLEVEQUE,,"ECOLE ACCUEIL VILLEVEQUE",,47.561573,-0.421014,,,1,,,0
zone_ECOLE_ANDARD,,"ECOLE ANDARD",,47.457396,-0.398637,,,1,,,0
zone_ECOLE_BALZAC,,"ECOLE BALZAC",,47.556980,-0.672240,,,1,,,0
zone_ECOLE_DE_SOULAINES,,"ECOLE DE SOULAINES",,47.364970,-0.521720,,,1,,,0
zone_ECOLE_DE_VILLEVEQUE,,"ECOLE DE VILLEVEQUE",,47.560917,-0.421416,,,1,,,0
zone_ECOLE_ELEMENTAIRE_SAVENNIERES,,"ECOLE ELEMENTAIRE SAVENNIERES",,47.382799,-0.656909,,,1,,,0
zone_ECOLE_MATERNELLE_SAVENNIERES,,"ECOLE MATERNELLE SAVENNIERES",,47.384552,-0.659228,,,1,,,0
zone_ECOLE_PRIVEE_SAVENNIERES,,"ECOLE PRIVEE SAVENNIERES",,47.384556,-0.659171,,,1,,,0
zone_ECOLE_PRIVEE_SOUCELLES,,"ECOLE PRIVEE SOUCELLES",,47.568319,-0.419262,,,1,,,0
zone_ECOLE_PUBLIQUE_SOUCELLES,,"ECOLE PUBLIQUE SOUCELLES",,47.571227,-0.421169,,,1,,,0
zone_ECOTIERE,,"ECOTIERE",,47.364456,-0.504602,,,1,,,0
zone_ECUILLE,,"ECUILLE",,47.616111,-0.562674,,,1,,,0
zone_EGLISE_DE_FENEU,,"EGLISE DE FENEU",,47.569600,-0.594373,,,1,,,0
zone_EGLISE_DE_LA_MEIGNANNE,,"EGLISE DE LA MEIGNANNE",,47.519706,-0.667614,,,1,,,0
zone_EGLISE_DE_PELLOUAILLES,,"EGLISE DE PELLOUAILLES",,47.522250,-0.443300,,,1,,,0
zone_EGLISE_DE_SAINT_CLEMENT,,"EGLISE DE SAINT CLEMENT",,47.524848,-0.745255,,,1,,,0
zone_EGLISE_DE_TRELAZE,,"EGLISE DE TRELAZE",,47.445543,-0.464537,,,1,,,0
zone_ELYSEE,,"ELYSEE",,47.473638,-0.584554,,,1,,,0
zone_EMPIRE,,"EMPIRE",,47.423144,-0.592888,,,1,,,0
zone_EPIRE,,"EPIRE",,47.398530,-0.634451,,,1,,,0
zone_ERIGNE,,"ERIGNE",,47.401424,-0.529747,,,1,,,0
zone_ESA,,"ESA",,47.458950,-0.544922,,,1,,,0
zone_ESAT_BEJONNIERES,,"ESAT BEJONNIERES",,47.481346,-0.510165,,,1,,,0
zone_ESAT_LES_BEJONNIERES,,"ESAT LES BEJONNIERES",,47.481290,-0.510116,,,1,,,0
zone_ESPACE_ANJOU,,"ESPACE ANJOU",,47.468201,-0.520280,,,1,,,0
zone_ESPACE_LONGUENEE,,"ESPACE LONGUENEE",,47.540193,-0.672815,,,1,,,0
zone_ESPERANTO,,"ESPERANTO",,47.529489,-0.603652,,,1,,,0
zone_ESSCA,,"ESSCA",,47.477318,-0.597424,,,1,,,0
zone_ESTAMINET,,"ESTAMINET",,47.565950,-0.503510,,,1,,,0
zone_ETAS,,"ETAS",,47.524514,-0.619963,,,1,,,0
zone_EVENTARD,,"EVENTARD",,47.497058,-0.514914,,,1,,,0
zone_FACULTE,,"FACULTE",,47.479300,-0.550741,,,1,,,0
zone_FACULTE_DE_MEDECINE,,"FACULTE DE MEDECINE",,47.487397,-0.552311,,,1,,,0
zone_FELIX_FAURE,,"FELIX FAURE",,47.485654,-0.546913,,,1,,,0
zone_FIEF_GENTIL,,"FIEF GENTIL",,47.533348,-0.525902,,,1,,,0
zone_FOCH_HARAS,,"FOCH HARAS",,47.467262,-0.551934,,,1,,,0
zone_FOCH_MAISON_BLEUE,,"FOCH MAISON BLEUE",,47.470156,-0.548366,,,1,,,0
zone_FOCH_SAINT_AUBIN,,"FOCH SAINT AUBIN",,47.468599,-0.549997,,,1,,,0
zone_FOUDON,,"FOUDON",,47.492220,-0.425180,,,1,,,0
zone_FOUQUETTERIE,,"FOUQUETTERIE",,47.468320,-0.705178,,,1,,,0
zone_FOUSSEAUX,,"FOUSSEAUX",,47.515809,-0.468496,,,1,,,0
zone_FRANCAISERIE,,"FRANCAISERIE",,47.521492,-0.465817,,,1,,,0
zone_FRATELLINI,,"FRATELLINI",,47.471541,-0.530892,,,1,,,0
zone_FRATERNITE,,"FRATERNITE",,47.490901,-0.560341,,,1,,,0
zone_FREMOND,,"FREMOND",,47.485810,-0.561327,,,1,,,0
zone_FREMUR,,"FREMUR",,47.458710,-0.558077,,,1,,,0
zone_FRESNAIES,,"FRESNAIES",,47.448240,-0.500503,,,1,,,0
zone_FRONT_DE_MAINE,,"FRONT DE MAINE",,47.472634,-0.566149,,,1,,,0
zone_FUNAULT,,"FUNAULT",,47.534650,-0.456580,,,1,,,0
zone_GAIGNE,,"GAIGNE",,47.383980,-0.552430,,,1,,,0
zone_GALILEE,,"GALILEE",,47.456488,-0.667254,,,1,,,0
zone_GALLIENI,,"GALLIENI",,47.434786,-0.524459,,,1,,,0
zone_GALLIENI_EUROPE,,"GALLIENI EUROPE",,47.486181,-0.528857,,,1,,,0
zone_GARDONNE,,"GARDONNE",,47.521754,-0.470914,,,1,,,0
zone_GARDOT,,"GARDOT",,47.468304,-0.533159,,,1,,,0
zone_GARE_DE_BOUCHEMAINE,,"GARE DE BOUCHEMAINE",,47.416681,-0.614755,,,1,,,0
zone_GARE_DE_SAVENNIERES,,"GARE DE SAVENNIERES",,47.381218,-0.655645,,,1,,,0
zone_GARE_DE_TRELAZE,,"GARE DE TRELAZE",,47.452407,-0.469624,,,1,,,0
zone_GARE_DE_TRELAZE_Arrivée,,"GARE DE TRELAZE Arrivée",,47.452049,-0.469085,,,1,,,0
zone_GARE_D'ECOUFLANT,,"GARE D'ECOUFLANT",,47.503916,-0.519653,,,1,,,0
zone_GARE_ROUTIERE,,"GARE ROUTIERE",,47.464733,-0.558147,,,1,,,0
zone_GARENNE,,"GARENNE",,47.478345,-0.576532,,,1,,,0
zone_GARES_BREMONT,,"GARES BREMONT",,47.465978,-0.559352,,,1,,,0
zone_GARES_PAPIN,,"GARES PAPIN",,47.465171,-0.557540,,,1,,,0
zone_GARES_SEMARD,,"GARES SEMARD",,47.464970,-0.559233,,,1,,,0
zone_GASNIER,,"GASNIER",,47.485235,-0.571703,,,1,,,0
zone_GASPALON,,"GASPALON",,47.453312,-0.506954,,,1,,,0
zone_GAUBERT,,"GAUBERT",,47.475296,-0.599519,,,1,,,0
zone_GAUBOURGS,,"GAUBOURGS",,47.449261,-0.572355,,,1,,,0
zone_GEMMETRIE-ESAIP,,"GEMMETRIE-ESAIP",,47.463297,-0.499167,,,1,,,0
zone_GENETIERE,,"GENETIERE",,47.494996,-0.442524,,,1,,,0
zone_GENIE,,"GENIE",,47.458154,-0.563821,,,1,,,0
zone_GENTRIC,,"GENTRIC",,47.447807,-0.485196,,,1,,,0
zone_GEOFFRAY,,"GEOFFRAY",,47.458634,-0.545676,,,1,,,0
zone_GEORGE_SAND,,"GEORGE SAND",,47.433306,-0.519457,,,1,,,0
zone_GERICAULT,,"GERICAULT",,47.460093,-0.523673,,,1,,,0
zone_GERMAINE_TILLION,,"GERMAINE TILLION",,47.537063,-0.627441,,,1,,,0
zone_GILLIER,,"GILLIER",,47.475033,-0.525450,,,1,,,0
zone_GIRARD,,"GIRARD",,47.490616,-0.581705,,,1,,,0
zone_GIRARDEAU,,"GIRARDEAU",,47.436613,-0.520354,,,1,,,0
zone_GIRAUDIERE,,"GIRAUDIERE",,47.521362,-0.436064,,,1,,,0
zone_GLOUTIERE,,"GLOUTIERE",,47.509348,-0.643552,,,1,,,0
zone_GLYCINES,,"GLYCINES",,47.498996,-0.523861,,,1,,,0
zone_GOURONNIERES,,"GOURONNIERES",,47.483141,-0.569387,,,1,,,0
zone_GRAND_CHEMIN,,"GRAND CHEMIN",,47.417653,-0.310648,,,1,,,0
zone_GRAND_CLAYE,,"GRAND CLAYE",,47.387113,-0.538381,,,1,,,0
zone_GRAND_CLOS,,"GRAND CLOS",,47.479790,-0.413530,,,1,,,0
zone_GRAND_LAUNAY,,"GRAND LAUNAY",,47.461947,-0.387219,,,1,,,0
zone_GRAND_MAINE,,"GRAND MAINE",,47.467641,-0.593102,,,1,,,0
zone_GRAND_MOTTAY,,"GRAND MOTTAY",,47.576000,-0.477130,,,1,,,0
zone_GRAND_PERIGNE,,"GRAND PERIGNE",,47.473873,-0.614355,,,1,,,0
zone_GRAND_PIN,,"GRAND PIN",,47.473309,-0.631658,,,1,,,0
zone_GRAND_PRESSOIR,,"GRAND PRESSOIR",,47.399456,-0.527772,,,1,,,0
zone_GRANDE_RUE,,"GRANDE RUE",,47.411212,-0.333411,,,1,,,0
zone_GRANDMONT,,"GRANDMONT",,47.487539,-0.587585,,,1,,,0
zone_GRANDS_CHAMPS,,"GRANDS CHAMPS",,47.514759,-0.434073,,,1,,,0
zone_GRANDS_RUAUX,,"GRANDS RUAUX",,47.565996,-0.555508,,,1,,,0
zone_GRANGE_AUX_BELLES,,"GRANGE AUX BELLES",,47.476732,-0.628330,,,1,,,0
zone_GRESILLE,,"GRESILLE",,47.460046,-0.605113,,,1,,,0
zone_GRIMORELLE,,"GRIMORELLE",,47.529481,-0.507283,,,1,,,0
zone_GROLIERE,,"GROLIERE",,47.354003,-0.527482,,,1,,,0
zone_GROUPE_COMMERCIAL,,"GROUPE COMMERCIAL",,47.445759,-0.605912,,,1,,,0
zone_GUERANDAIS,,"GUERANDAIS",,47.527483,-0.748592,,,1,,,0
zone_GUICHARD,,"GUICHARD",,47.455265,-0.547977,,,1,,,0
zone_GUILLAUMIERE,,"GUILLAUMIERE",,47.533187,-0.671804,,,1,,,0
zone_GUINEZERT,,"GUINEZERT",,47.461792,-0.631003,,,1,,,0
zone_HAIE_JOULAIN,,"HAIE JOULAIN",,47.517572,-0.462668,,,1,,,0
zone_HARENCHERES,,"HARENCHERES",,47.448726,-0.615630,,,1,,,0
zone_HAUT_COUDRAY,,"HAUT COUDRAY",,47.530524,-0.624035,,,1,,,0
zone_HAUT_PRESSOIR,,"HAUT PRESSOIR",,47.453201,-0.538005,,,1,,,0
zone_HAUTE_DE_RECULEE,,"HAUTE DE RECULEE",,47.485016,-0.552668,,,1,,,0
zone_HAUTE_MARZELLE,,"HAUTE MARZELLE",,47.343056,-0.529671,,,1,,,0
zone_HAUTE_ROCHE,,"HAUTE ROCHE",,47.469210,-0.634750,,,1,,,0
zone_HAUTES_BRUYERES,,"HAUTES BRUYERES",,47.593497,-0.454406,,,1,,,0
zone_HAUTES_CHAPELLES,,"HAUTES CHAPELLES",,47.475842,-0.380717,,,1,,,0
zone_HAUTS_DE_BOUCHEMAINE,,"HAUTS DE BOUCHEMAINE",,47.430509,-0.609577,,,1,,,0
zone_HAUTS_DE_SAINT_AUBIN,,"HAUTS DE SAINT AUBIN",,47.492218,-0.560261,,,1,,,0
zone_HERMITAGE,,"HERMITAGE",,47.477769,-0.635291,,,1,,,0
zone_HIPPODROME,,"HIPPODROME",,47.501259,-0.507444,,,1,,,0
zone_HOPITAL_DE_SAINTE_GEMMES,,"HOPITAL DE SAINTE GEMMES",,47.422930,-0.560796,,,1,,,0
zone_HOTEL_DE_VILLE,,"HOTEL DE VILLE",,47.471996,-0.546314,,,1,,,0
zone_HOTEL_DE_VILLE_MURS_ERIGNE,,"HOTEL DE VILLE MURS ERIGNE",,47.401878,-0.536493,,,1,,,0
zone_HOTEL_DIEU,,"HOTEL DIEU",,47.479354,-0.559358,,,1,,,0
zone_HOTELLERIE,,"HOTELLERIE",,47.489338,-0.518919,,,1,,,0
zone_HUETTERIE,,"HUETTERIE",,47.459570,-0.477410,,,1,,,0
zone_HULLETERIES,,"HULLETERIES",,47.465434,-0.720887,,,1,,,0
zone_HUTREAU,,"HUTREAU",,47.432943,-0.554608,,,1,,,0
zone_INDUSTRIE,,"INDUSTRIE",,47.490211,-0.522846,,,1,,,0
zone_INRA,,"INRA",,47.474747,-0.611051,,,1,,,0
zone_INTERMARCHE,,"INTERMARCHE",,47.455757,-0.533811,,,1,,,0
zone_INTREPIDE,,"INTREPIDE",,47.447342,-0.552128,,,1,,,0
zone_IRLANDE,,"IRLANDE",,47.523083,-0.604311,,,1,,,0
zone_ISORET,,"ISORET",,47.474679,-0.520126,,,1,,,0
zone_ITALIE,,"ITALIE",,47.524826,-0.602071,,,1,,,0
zone_IUT,,"IUT",,47.480524,-0.602401,,,1,,,0
zone_JANVRIE,,"JANVRIE",,47.504195,-0.699612,,,1,,,0
zone_JARDIN_BOTANIQUE,,"JARDIN BOTANIQUE",,47.571530,-0.502780,,,1,,,0
zone_JARDINS_FAMILIAUX,,"JARDINS FAMILIAUX",,47.485618,-0.508049,,,1,,,0
zone_JAUDETTE,,"JAUDETTE",,47.463827,-0.490139,,,1,,,0
zone_JEAN_BOUIN,,"JEAN BOUIN",,47.459015,-0.532828,,,1,,,0
zone_JEAN_BOUIN_SCOLAIRE,,"JEAN BOUIN SCOLAIRE",,47.459170,-0.532817,,,1,,,0
zone_JEAN_BOUTTON,,"JEAN BOUTTON",,47.438792,-0.507286,,,1,,,0
zone_JEAN_CARMET,,"JEAN CARMET",,47.400458,-0.543120,,,1,,,0
zone_JEAN_HUEZ,,"JEAN HUEZ",,47.530869,-0.594047,,,1,,,0
zone_JEAN_JAURES,,"JEAN JAURES",,47.457691,-0.522848,,,1,,,0
zone_JEAN_MOULIN,,"JEAN MOULIN",,47.492355,-0.551824,,,1,,,0
zone_JEAN_ROSTAND,,"JEAN ROSTAND",,47.448876,-0.500897,,,1,,,0
zone_JEAN_VILAR,,"JEAN VILAR",,47.446225,-0.562258,,,1,,,0
zone_JEAN_XXIII,,"JEAN XXIII",,47.448627,-0.562853,,,1,,,0
zone_JEANNE_DE_LAVAL,,"JEANNE DE LAVAL",,47.465852,-0.383524,,,1,,,0
zone_JERUSALEM,,"JERUSALEM",,47.473566,-0.529793,,,1,,,0
zone_JOACHIM_DU_BELLAY,,"JOACHIM DU BELLAY",,47.476535,-0.547354,,,1,,,0
zone_JOSEPH_WRESINSKI,,"JOSEPH WRESINSKI",,47.484631,-0.559286,,,1,,,0
zone_JOXE,,"JOXE",,47.484641,-0.541396,,,1,,,0
zone_JUIGNE,,"JUIGNE",,47.540029,-0.615327,,,1,,,0
zone_JULES_FERRY,,"JULES FERRY",,47.466380,-0.498730,,,1,,,0
zone_JULES_VERNE,,"JULES VERNE",,47.447483,-0.560643,,,1,,,0
zone_JUSTICES,,"JUSTICES",,47.453598,-0.526254,,,1,,,0
zone_KENNEDY,,"KENNEDY",,47.492144,-0.577152,,,1,,,0
zone_LA_BARRE,,"LA BARRE",,47.473255,-0.597333,,,1,,,0
zone_LA_BARRE_VILLEVEQUE,,"LA BARRE VILLEVEQUE",,47.552285,-0.429190,,,1,,,0
zone_LA_BOISNERIE,,"LA BOISNERIE",,47.511585,-0.360022,,,1,,,0
zone_LA_BOISSIERE,,"LA BOISSIERE",,47.504780,-0.600003,,,1,,,0
zone_LA_BOUTEILLERIE,,"LA BOUTEILLERIE",,47.539153,-0.438941,,,1,,,0
zone_LA_BROSSE_ECOUFLANT,,"LA BROSSE ECOUFLANT",,47.532512,-0.522009,,,1,,,0
zone_LA_BRULETTE,,"LA BRULETTE",,47.580040,-0.440697,,,1,,,0
zone_LA_BRUYERE,,"LA BRUYERE",,47.476615,-0.573319,,,1,,,0
zone_LA_BUISSAIE,,"LA BUISSAIE",,47.396144,-0.552051,,,1,,,0
zone_LA_CHAUVELAIE,,"LA CHAUVELAIE",,47.436497,-0.584315,,,1,,,0
zone_LA_CHENAIE,,"LA CHENAIE",,47.548030,-0.474420,,,1,,,0
zone_LA_CHESNAIE,,"LA CHESNAIE",,47.437188,-0.523946,,,1,,,0
zone_LA_CITE_CHABADA,,"LA CITE CHABADA",,47.488419,-0.535882,,,1,,,0
zone_LA_COUDRE,,"LA COUDRE",,47.460665,-0.710345,,,1,,,0
zone_LA_CROIX,,"LA CROIX",,47.417905,-0.314376,,,1,,,0
zone_LA_DOUBLONNIERE,,"LA DOUBLONNIERE",,47.403651,-0.668944,,,1,,,0
zone_LA_FAUVELAIS,,"LA FAUVELAIS",,47.452228,-0.512013,,,1,,,0
zone_LA_FONTAINE_FENEU,,"LA FONTAINE FENEU",,47.569642,-0.590378,,,1,,,0
zone_LA_FONTAINE_VILLEVEQUE,,"LA FONTAINE VILLEVEQUE",,47.552087,-0.462222,,,1,,,0
zone_LA_GENDRIE,,"LA GENDRIE",,47.498869,-0.324872,,,1,,,0
zone_LA_GLAND,,"LA GLAND",,47.403587,-0.658370,,,1,,,0
zone_LA_GRANGE,,"LA GRANGE",,47.504593,-0.632424,,,1,,,0
zone_LA_GRUICHE,,"LA GRUICHE",,47.553579,-0.453813,,,1,,,0
zone_LA_MARE,,"LA MARE",,47.468470,-0.465200,,,1,,,0
zone_LA_MEIGNANNE,,"LA MEIGNANNE",,47.484431,-0.582151,,,1,,,0
zone_LA_MONGELIERE,,"LA MONGELIERE",,47.586905,-0.412535,,,1,,,0
zone_LA_MONNAIE,,"LA MONNAIE",,47.445250,-0.512410,,,1,,,0
zone_LA_MOULINERIE,,"LA MOULINERIE",,47.592286,-0.421723,,,1,,,0
zone_LA_PAQUERAIE,,"LA PAQUERAIE",,47.480122,-0.405369,,,1,,,0
zone_LA_PASQUELERIE,,"LA PASQUELERIE",,47.510712,-0.353206,,,1,,,0
zone_LA_PERRAUDIERE,,"LA PERRAUDIERE",,47.508121,-0.346495,,,1,,,0
zone_LA_PETITE_LANDE,,"LA PETITE LANDE",,47.451278,-0.431885,,,1,,,0
zone_LA_PINEAUDIERE,,"LA PINEAUDIERE",,47.593280,-0.536900,,,1,,,0
zone_LA_PLESSE,,"LA PLESSE",,47.499550,-0.620354,,,1,,,0
zone_LA_POINTE,,"LA POINTE",,47.410419,-0.619809,,,1,,,0
zone_LA_REUX,,"LA REUX",,47.469512,-0.510408,,,1,,,0
zone_LA_ROCHE,,"LA ROCHE",,47.458122,-0.656950,,,1,,,0
zone_LA_ROCHE_FOULQUES,,"LA ROCHE FOULQUES",,47.575840,-0.454840,,,1,,,0
zone_LA_ROCHEFOUCAULD,,"LA ROCHEFOUCAULD",,47.479395,-0.556720,,,1,,,0
zone_LA_ROCHETTE,,"LA ROCHETTE",,47.528702,-0.751075,,,1,,,0
zone_LA_ROUSSIERE,,"LA ROUSSIERE",,47.574636,-0.650751,,,1,,,0
zone_LA_SABLE,,"LA SABLE",,47.587057,-0.590420,,,1,,,0
zone_LA_SAULAIE,,"LA SAULAIE",,47.528960,-0.487659,,,1,,,0
zone_LA_TUFFIERE,,"LA TUFFIERE",,47.503213,-0.376471,,,1,,,0
zone_LA_TURMINIERE,,"LA TURMINIERE",,47.566820,-0.545550,,,1,,,0
zone_LA_VENRIE,,"LA VENRIE",,47.421405,-0.569932,,,1,,,0
zone_LAC_DE_MAINE_-_L'HOIRIE,,"LAC DE MAINE - L'HOIRIE",,47.468040,-0.618260,,,1,,,0
zone_LAC_DE_MAINE_CAMPING,,"LAC DE MAINE CAMPING",,47.458134,-0.597035,,,1,,,0
zone_LAC_DE_MAINE_NAUTIQUE,,"LAC DE MAINE NAUTIQUE",,47.461212,-0.596130,,,1,,,0
zone_LAENNEC,,"LAENNEC",,47.539427,-0.618361,,,1,,,0
zone_LANDE,,"LANDE",,47.562423,-0.585343,,,1,,,0
zone_LANGEVIN,,"LANGEVIN",,47.518512,-0.612077,,,1,,,0
zone_LANGEVINE,,"LANGEVINE",,47.478708,-0.691873,,,1,,,0
zone_LAREVELLIERE,,"LAREVELLIERE",,47.471345,-0.531820,,,1,,,0
zone_L'ATOLL,,"L'ATOLL",,47.483160,-0.632233,,,1,,,0
zone_LAVOIR,,"LAVOIR",,47.440731,-0.498791,,,1,,,0
zone_LE_BOIS_D'EPINARD,,"LE BOIS D'EPINARD",,47.474547,-0.330307,,,1,,,0
zone_LE_CHENE,,"LE CHENE",,47.420969,-0.575982,,,1,,,0
zone_LE_CLOS,,"LE CLOS",,47.425409,-0.427874,,,1,,,0
zone_LE_CORBUSIER,,"LE CORBUSIER",,47.485470,-0.630915,,,1,,,0
zone_LE_COTEAU,,"LE COTEAU",,47.398225,-0.548771,,,1,,,0
zone_LE_FOUILLOUX,,"LE FOUILLOUX",,47.417871,-0.668967,,,1,,,0
zone_LE_FRESNE,,"LE FRESNE",,47.442474,-0.583639,,,1,,,0
zone_LE_FROMIOUX,,"LE FROMIOUX",,47.510080,-0.714920,,,1,,,0
zone_LE_GRENOUILLE,,"LE GRENOUILLE",,47.502990,-0.328218,,,1,,,0
zone_LE_HYLIER,,"LE HYLIER",,47.584661,-0.401706,,,1,,,0
zone_LE_LANDREAU,,"LE LANDREAU",,47.474144,-0.617183,,,1,,,0
zone_LE_MURIER,,"LE MURIER",,47.514075,-0.376561,,,1,,,0
zone_LE_NOTRE,,"LE NOTRE",,47.476408,-0.607127,,,1,,,0
zone_LE_NOYAU,,"LE NOYAU",,47.512669,-0.365496,,,1,,,0
zone_LE_PETIT_GUICHARD,,"LE PETIT GUICHARD",,47.526150,-0.478804,,,1,,,0
zone_LE_PORT,,"LE PORT",,47.421579,-0.573612,,,1,,,0
zone_LE_PRÉ,,"LE PRÉ",,47.515252,-0.585102,,,1,,,0
zone_LE_RUAU,,"LE RUAU",,47.424131,-0.399142,,,1,,,0
zone_LE_TEMPLE,,"LE TEMPLE",,47.489330,-0.428420,,,1,,,0
zone_LE_TERTRE_SOULAINES,,"LE TERTRE SOULAINES",,47.362928,-0.522721,,,1,,,0
zone_LECLERC,,"LECLERC",,47.483036,-0.575810,,,1,,,0
zone_LECUIT,,"LECUIT",,47.490299,-0.562711,,,1,,,0
zone_LEFEVRE,,"LEFEVRE",,47.443326,-0.488759,,,1,,,0
zone_LEGRAS,,"LEGRAS",,47.529230,-0.566899,,,1,,,0
zone_LEMERCIER,,"LEMERCIER",,47.498658,-0.522524,,,1,,,0
zone_LEO_LAGRANGE,,"LEO LAGRANGE",,47.447825,-0.510051,,,1,,,0
zone_L'EPINAY,,"L'EPINAY",,47.432610,-0.377319,,,1,,,0
zone_LES_AULNAIES,,"LES AULNAIES",,47.586900,-0.439760,,,1,,,0
zone_LES_BOIRES,,"LES BOIRES",,47.410755,-0.296010,,,1,,,0
zone_LES_BUISSONS_BELLES,,"LES BUISSONS BELLES",,47.448004,-0.421001,,,1,,,0
zone_LES_CHAPELLES,,"LES CHAPELLES",,47.577060,-0.544660,,,1,,,0
zone_LES_ECOTS,,"LES ECOTS",,47.475583,-0.695597,,,1,,,0
zone_LES_ESSARTS,,"LES ESSARTS",,47.469174,-0.736688,,,1,,,0
zone_LES_FORGES,,"LES FORGES",,47.386446,-0.645127,,,1,,,0
zone_LES_GARES,,"LES GARES",,47.465344,-0.555373,,,1,,,0
zone_LES_GAS,,"LES GAS",,47.514588,-0.659435,,,1,,,0
zone_LES_GATS,,"LES GATS",,47.474413,-0.516839,,,1,,,0
zone_LES_GRAPPES,,"LES GRAPPES",,47.426711,-0.301185,,,1,,,0
zone_LES_GROIES_1,,"LES GROIES 1",,47.493931,-0.403143,,,1,,,0
zone_LES_GROIES_2,,"LES GROIES 2",,47.492003,-0.399549,,,1,,,0
zone_LES_HUMEAUX,,"LES HUMEAUX",,47.542962,-0.442226,,,1,,,0
zone_LES_JUINDRIES,,"LES JUINDRIES",,47.506177,-0.382575,,,1,,,0
zone_LES_NONNAINS,,"LES NONNAINS",,47.586937,-0.423106,,,1,,,0
zone_LES_RIVES,,"LES RIVES",,47.526727,-0.525073,,,1,,,0
zone_LES_ROSES,,"LES ROSES",,47.427006,-0.551286,,,1,,,0
zone_LES_VIGNES,,"LES VIGNES",,47.408916,-0.626300,,,1,,,0
zone_L'ESNAUDERIE,,"L'ESNAUDERIE",,47.593290,-0.549570,,,1,,,0
zone_LETANDUERE,,"LETANDUERE",,47.453051,-0.552958,,,1,,,0
zone_LEVESQUE,,"LEVESQUE",,47.402258,-0.533645,,,1,,,0
zone_L'HERMITAGE__1,,"L'HERMITAGE  1",,47.584554,-0.417496,,,1,,,0
zone_L'HERMITAGE_1,,"L'HERMITAGE 1",,47.584554,-0.417496,,,1,,,0
zone_L'HERMITAGE_SOUCELLES,,"L'HERMITAGE SOUCELLES",,47.584554,-0.417496,,,1,,,0
zone_LICES,,"LICES",,47.467239,-0.554543,,,1,,,0
zone_LICORNE,,"LICORNE",,47.473425,-0.593264,,,1,,,0
zone_LILAS,,"LILAS",,47.459514,-0.662865,,,1,,,0
zone_LINNE,,"LINNE",,47.446569,-0.547658,,,1,,,0
zone_LINO_VENTURA,,"LINO VENTURA",,47.447568,-0.529059,,,1,,,0
zone_LIZE,,"LIZE",,47.488198,-0.573022,,,1,,,0
zone_LOIRE,,"LOIRE",,47.418855,-0.523356,,,1,,,0
zone_LOMBARDIERES,,"LOMBARDIERES",,47.442579,-0.690425,,,1,,,0
zone_L'OREE,,"L'OREE",,47.542740,-0.672236,,,1,,,0
zone_L'OREE_DES_BOIS,,"L'OREE DES BOIS",,47.514075,-0.378852,,,1,,,0
zone_LORETTE,,"LORETTE",,47.451272,-0.547605,,,1,,,0
zone_LORRAINE,,"LORRAINE",,47.470342,-0.547149,,,1,,,0
zone_LOTISSEMENT_DE_VILLEVEQUE,,"LOTISSEMENT DE VILLEVEQUE",,47.556772,-0.424174,,,1,,,0
zone_LOUET,,"LOUET",,47.412376,-0.523752,,,1,,,0
zone_LOUPINOT,,"LOUPINOT",,47.424660,-0.552561,,,1,,,0
zone_LUTIN,,"LUTIN",,47.475754,-0.534199,,,1,,,0
zone_LYCEE_CHEVROLLIER,,"LYCEE CHEVROLLIER",,47.454563,-0.556704,,,1,,,0
zone_LYCEE_NARCE,,"LYCEE NARCE",,47.448875,-0.429825,,,1,,,0
zone_MACE,,"MACE",,47.477055,-0.531756,,,1,,,0
zone_MADELEINE,,"MADELEINE",,47.459252,-0.535533,,,1,,,0
zone_MAIL,,"MAIL",,47.471177,-0.546262,,,1,,,0
zone_MAIL_DES_QUATRE_VENTS,,"MAIL DES QUATRE VENTS",,47.531819,-0.528458,,,1,,,0
zone_MAILLÉE,,"MAILLÉE",,47.485703,-0.392805,,,1,,,0
zone_MAIRIE_D'AVRILLE,,"MAIRIE D'AVRILLE",,47.504941,-0.589908,,,1,,,0
zone_MAIRIE_DE_BEAUCOUZE,,"MAIRIE DE BEAUCOUZE",,47.474611,-0.632113,,,1,,,0
zone_MAIRIE_DE_BRIOLLAY,,"MAIRIE DE BRIOLLAY",,47.563684,-0.507357,,,1,,,0
zone_MAIRIE_DE_LA_MEMBROLLE,,"MAIRIE DE LA MEMBROLLE",,47.560846,-0.672825,,,1,,,0
zone_MAIRIE_DE_PELLOUAILLES,,"MAIRIE DE PELLOUAILLES",,47.521823,-0.439388,,,1,,,0
zone_MAIRIE_DE_SAINT_JEAN_DE_LINIERES,,"MAIRIE DE SAINT JEAN DE LINIERES",,47.458630,-0.658459,,,1,,,0
zone_MAIRIE_DE_SAINT_LEGER_DES_BOIS,,"MAIRIE DE SAINT LEGER DES BOIS",,47.459128,-0.709932,,,1,,,0
zone_MAIRIE_DE_SAINT_SYLVAIN,,"MAIRIE DE SAINT SYLVAIN",,47.520930,-0.471023,,,1,,,0
zone_MAIRIE_DE_SAINTE_GEMMES,,"MAIRIE DE SAINTE GEMMES",,47.422849,-0.556508,,,1,,,0
zone_MAIRIE_DE_SARRIGNE,,"MAIRIE DE SARRIGNE",,47.501730,-0.383121,,,1,,,0
zone_MAIRIE_DE_TRELAZE,,"MAIRIE DE TRELAZE",,47.445610,-0.468258,,,1,,,0
zone_MAIRIE_DE_VILLEVEQUE,,"MAIRIE DE VILLEVEQUE",,47.559464,-0.422118,,,1,,,0
zone_MAIRIE_DES_PONTS_DE_CE,,"MAIRIE DES PONTS DE CE",,47.425545,-0.523518,,,1,,,0
zone_MAIRIE_DU_PLESSIS_GRAMMOIRE,,"MAIRIE DU PLESSIS GRAMMOIRE",,47.500969,-0.431570,,,1,,,0
zone_MAIRIE_DU_PLESSIS_MACE,,"MAIRIE DU PLESSIS MACE",,47.544040,-0.674719,,,1,,,0
zone_MAISON_DE_LA_DANSE,,"MAISON DE LA DANSE",,47.488850,-0.584843,,,1,,,0
zone_MAISON_DE_L'ENVIRONNEMENT,,"MAISON DE L'ENVIRONNEMENT",,47.464274,-0.593994,,,1,,,0
zone_MAISON_DE_TECHNOPOLE,,"MAISON DE TECHNOPOLE",,47.479114,-0.605828,,,1,,,0
zone_MAISON_DES_ARTS,,"MAISON DES ARTS",,47.471814,-0.537337,,,1,,,0
zone_MAISON_DU_LAC,,"MAISON DU LAC",,47.466103,-0.597787,,,1,,,0
zone_MAISONS_ROUGES,,"MAISONS ROUGES",,47.474479,-0.511906,,,1,,,0
zone_MALAQUAIS,,"MALAQUAIS",,47.444258,-0.490085,,,1,,,0
zone_MALBOIRE,,"MALBOIRE",,47.481728,-0.413421,,,1,,,0
zone_MALNOUE,,"MALNOUE",,47.369400,-0.516440,,,1,,,0
zone_MALRAUX,,"MALRAUX",,47.457594,-0.473421,,,1,,,0
zone_MANSION,,"MANSION",,47.477105,-0.587998,,,1,,,0
zone_MARCEL_VIGNE,,"MARCEL VIGNE",,47.475137,-0.582192,,,1,,,0
zone_MARCHE_MONPLAISIR,,"MARCHE MONPLAISIR",,47.488419,-0.535882,,,1,,,0
zone_MARECHAL_JUIN,,"MARECHAL JUIN",,47.450217,-0.567177,,,1,,,0
zone_MARECHAL_LECLERC,,"MARECHAL LECLERC",,47.518668,-0.466495,,,1,,,0
zone_MARECHAL_LYAUTEY,,"MARECHAL LYAUTEY",,47.491830,-0.583741,,,1,,,0
zone_MARIANNE,,"MARIANNE",,47.450174,-0.530030,,,1,,,0
zone_MARIE_CURIE,,"MARIE CURIE",,47.433397,-0.516557,,,1,,,0
zone_MARIUS_BRIANT,,"MARIUS BRIANT",,47.473981,-0.577487,,,1,,,0
zone_MARMITIÈRE,,"MARMITIÈRE",,47.471053,-0.489579,,,1,,,0
zone_MAROTTIERES,,"MAROTTIERES",,47.536252,-0.568767,,,1,,,0
zone_MARSAULAIE,,"MARSAULAIE",,47.415512,-0.343629,,,1,,,0
zone_MARTINIERE,,"MARTINIERE",,47.608580,-0.563686,,,1,,,0
zone_MARY_CASSATT,,"MARY CASSATT",,47.511318,-0.602793,,,1,,,0
zone_MASSON,,"MASSON",,47.532075,-0.567479,,,1,,,0
zone_MASTELLE,,"MASTELLE",,47.529445,-0.591995,,,1,,,0
zone_MAUFINEE,,"MAUFINEE",,47.502612,-0.588847,,,1,,,0
zone_MAUPERTHUIS,,"MAUPERTHUIS",,47.433890,-0.485645,,,1,,,0
zone_MEILLAND,,"MEILLAND",,47.448566,-0.546285,,,1,,,0
zone_MELGRANI,,"MELGRANI",,47.477821,-0.592097,,,1,,,0
zone_MENARD,,"MENARD",,47.445818,-0.493713,,,1,,,0
zone_MENDES_FRANCE,,"MENDES FRANCE",,47.472947,-0.545623,,,1,,,0
zone_MERCIER,,"MERCIER",,47.492696,-0.458265,,,1,,,0
zone_MICHELET,,"MICHELET",,47.463467,-0.544211,,,1,,,0
zone_MILLARDIERE,,"MILLARDIERE",,47.514182,-0.473583,,,1,,,0
zone_MILLOT_SCOLAIRE,,"MILLOT SCOLAIRE",,47.456686,-0.533362,,,1,,,0
zone_MIMOSAS,,"MIMOSAS",,47.481606,-0.523209,,,1,,,0
zone_MIRABEAU,,"MIRABEAU",,47.460121,-0.548963,,,1,,,0
zone_MIRBEAU,,"MIRBEAU",,47.488434,-0.510025,,,1,,,0
zone_MOLIERE,,"MOLIERE",,47.474539,-0.554298,,,1,,,0
zone_MOLINERIE,,"MOLINERIE",,47.521470,-0.666748,,,1,,,0
zone_MONCEAU,,"MONCEAU",,47.472414,-0.389606,,,1,,,0
zone_MONGAZON,,"MONGAZON",,47.460958,-0.528431,,,1,,,0
zone_MONNET,,"MONNET",,47.465597,-0.601284,,,1,,,0
zone_MONNIER,,"MONNIER",,47.404184,-0.525121,,,1,,,0
zone_MONOD,,"MONOD",,47.478998,-0.636373,,,1,,,0
zone_MONPLAISIR,,"MONPLAISIR",,47.491138,-0.526601,,,1,,,0
zone_MONPLAISIR_PLESSIS_GRAMMOIRE,,"MONPLAISIR PLESSIS GRAMMOIRE",,47.499931,-0.428712,,,1,,,0
zone_MONPROFIT,,"MONPROFIT",,47.475619,-0.566609,,,1,,,0
zone_MONT_CASSIN,,"MONT CASSIN",,47.447259,-0.569423,,,1,,,0
zone_MONTAIGNE,,"MONTAIGNE",,47.470794,-0.531367,,,1,,,0
zone_MONTECLAIR,,"MONTECLAIR",,47.464486,-0.604694,,,1,,,0
zone_MONTESQUIEU,,"MONTESQUIEU",,47.473789,-0.579209,,,1,,,0
zone_MONTHIBERT,,"MONTHIBERT",,47.444752,-0.473340,,,1,,,0
zone_MONTREUIL_JUIGNE_-_BENE,,"MONTREUIL JUIGNE - BENE",,47.541127,-0.609497,,,1,,,0
zone_MOREL,,"MOREL",,47.474965,-0.608518,,,1,,,0
zone_MORELLERIE,,"MORELLERIE",,47.452984,-0.544829,,,1,,,0
zone_MORETTE,,"MORETTE",,47.604381,-0.560982,,,1,,,0
zone_MORICIERE,,"MORICIERE",,47.483279,-0.349375,,,1,,,0
zone_MORLIERE,,"MORLIERE",,47.461620,-0.482373,,,1,,,0
zone_MOULIN_DES_LANDES,,"MOULIN DES LANDES",,47.530290,-0.476450,,,1,,,0
zone_MOULIN_MARCILLE,,"MOULIN MARCILLE",,47.433771,-0.500586,,,1,,,0
zone_MOUNIER_LYCEE,,"MOUNIER LYCEE",,47.489496,-0.526925,,,1,,,0
zone_MURS_ERIGNE,,"MURS ERIGNE",,47.395437,-0.555815,,,1,,,0
zone_MUSSET,,"MUSSET",,47.473706,-0.538723,,,1,,,0
zone_MUTUALITE,,"MUTUALITE",,47.455794,-0.540790,,,1,,,0
zone_NOTRE_DAME_DU_LAC,,"NOTRE DAME DU LAC",,47.479662,-0.589609,,,1,,,0
zone_NOUELLE,,"NOUELLE",,47.544957,-0.669613,,,1,,,0
zone_NOYANT,,"NOYANT",,47.563370,-0.545600,,,1,,,0
zone_NOZAY,,"NOZAY",,47.487747,-0.532050,,,1,,,0
zone_OFFICE_DE_TOURISME,,"OFFICE DE TOURISME",,47.469146,-0.557842,,,1,,,0
zone_OFFICE_TOURISME_ST_MATHURIN,,"OFFICE TOURISME ST MATHURIN",,47.409642,-0.321741,,,1,,,0
zone_OLIVERAIE,,"OLIVERAIE",,47.427343,-0.712434,,,1,,,0
zone_ORGEMONT,,"ORGEMONT",,47.447900,-0.541907,,,1,,,0
zone_ORMEAUX,,"ORMEAUX",,47.480066,-0.519096,,,1,,,0
zone_PABLO_NERUDA,,"PABLO NERUDA",,47.445252,-0.541133,,,1,,,0
zone_PAGNOL,,"PAGNOL",,47.554220,-0.668560,,,1,,,0
zone_PALLACH,,"PALLACH",,47.446187,-0.558742,,,1,,,0
zone_PALLUAU,,"PALLUAU",,47.425579,-0.335353,,,1,,,0
zone_PAPERIE,,"PAPERIE",,47.468743,-0.506503,,,1,,,0
zone_PAQUERETTE,,"PAQUERETTE",,47.485937,-0.649222,,,1,,,0
zone_PARC_EXPO_CITE_DE_L'OBJET_CONNECTE,,"PARC EXPO CITE DE L'OBJET CONNECTE",,47.497075,-0.493407,,,1,,,0
zone_PARMENTIER,,"PARMENTIER",,47.453192,-0.518480,,,1,,,0
zone_PAS_GAUTIER,,"PAS GAUTIER",,47.471041,-0.409180,,,1,,,0
zone_PASTEUR,,"PASTEUR",,47.467113,-0.492965,,,1,,,0
zone_PATIO,,"PATIO",,47.510640,-0.649890,,,1,,,0
zone_PATIS,,"PATIS",,47.540480,-0.582370,,,1,,,0
zone_PATIS_ST_LEGER,,"PATIS ST LEGER",,47.464754,-0.706956,,,1,,,0
zone_PATTON,,"PATTON",,47.473446,-0.590041,,,1,,,0
zone_PATUREAUX,,"PATUREAUX",,47.434144,-0.527542,,,1,,,0
zone_PAUGER,,"PAUGER",,47.483180,-0.677822,,,1,,,0
zone_PAUL_BERT,,"PAUL BERT",,47.466268,-0.552280,,,1,,,0
zone_PAUL_GAUGUIN,,"PAUL GAUGUIN",,47.526717,-0.464026,,,1,,,0
zone_PAVILLON,,"PAVILLON",,47.465944,-0.620961,,,1,,,0
zone_PELLERINIERE,,"PELLERINIERE",,47.460678,-0.487363,,,1,,,0
zone_PELUAU,,"PELUAU",,47.489650,-0.567440,,,1,,,0
zone_PERDRIAU,,"PERDRIAU",,47.439552,-0.487529,,,1,,,0
zone_PERRAUDIERE_RD_723,,"PERRAUDIERE RD 723",,47.438510,-0.698551,,,1,,,0
zone_PERRAUDIERE_ST_LAMBERT,,"PERRAUDIERE ST LAMBERT",,47.482359,-0.681225,,,1,,,0
zone_PERRAUDIERE_ZA,,"PERRAUDIERE ZA",,47.436282,-0.700097,,,1,,,0
zone_PERRIERE,,"PERRIERE",,47.461107,-0.408392,,,1,,,0
zone_PERRIÈRE,,"PERRIÈRE",,47.464759,-0.408258,,,1,,,0
zone_PERUSSAIE,,"PERUSSAIE",,47.466027,-0.595445,,,1,,,0
zone_PETIT_ANJOU,,"PETIT ANJOU",,47.444996,-0.614635,,,1,,,0
zone_PETIT_MONGAZON,,"PETIT MONGAZON",,47.486971,-0.483308,,,1,,,0
zone_PETIT_PORT,,"PETIT PORT",,47.425920,-0.609581,,,1,,,0
zone_PETITE_GARDE,,"PETITE GARDE",,47.508439,-0.587941,,,1,,,0
zone_PETITE_LANDE,,"PETITE LANDE",,47.554391,-0.580109,,,1,,,0
zone_PETITE_SOUZELLE,,"PETITE SOUZELLE",,47.549743,-0.563858,,,1,,,0
zone_PETITES_PANNES,,"PETITES PANNES",,47.488753,-0.569805,,,1,,,0
zone_PETITES_VALINIERES,,"PETITES VALINIERES",,47.506790,-0.444390,,,1,,,0
zone_PETITS_GRANDCHAMPS,,"PETITS GRANDCHAMPS",,47.463965,-0.714313,,,1,,,0
zone_PICASSO,,"PICASSO",,47.453745,-0.521964,,,1,,,0
zone_PIECE_DU_MOULIN,,"PIECE DU MOULIN",,47.507368,-0.596631,,,1,,,0
zone_PIGEON_D'OR,,"PIGEON D'OR",,47.469138,-0.388573,,,1,,,0
zone_PIGNONIERE,,"PIGNONIERE",,47.487273,-0.498296,,,1,,,0
zone_PINELIER,,"PINELIER",,47.523123,-0.743117,,,1,,,0
zone_PINSONS,,"PINSONS",,47.472597,-0.630118,,,1,,,0
zone_PISCINE_CAMILLE_MUFFAT,,"PISCINE CAMILLE MUFFAT",,47.534572,-0.616510,,,1,,,0
zone_PIVERDIERE,,"PIVERDIERE",,47.437669,-0.609674,,,1,,,0
zone_PLACE_DE_LA_FONTAINE,,"PLACE DE LA FONTAINE",,47.577093,-0.662803,,,1,,,0
zone_PLACE_DE_L'EUROPE,,"PLACE DE L'EUROPE",,47.487737,-0.526349,,,1,,,0
zone_PLACE_DU_8_MAI,,"PLACE DU 8 MAI",,47.446247,-0.412094,,,1,,,0
zone_PLACE_DU_LYCEE,,"PLACE DU LYCEE",,47.466904,-0.544408,,,1,,,0
zone_PLACE_LA_FAYETTE,,"PLACE LA FAYETTE",,47.462537,-0.554345,,,1,,,0
zone_PLACE_NEY,,"PLACE NEY",,47.478535,-0.543271,,,1,,,0
zone_PLATEAU_DE_MAYENNE,,"PLATEAU DE MAYENNE",,47.496548,-0.579454,,,1,,,0
zone_PLATEAU_FLEURI,,"PLATEAU FLEURI",,47.529884,-0.597765,,,1,,,0
zone_PLOTINIERE,,"PLOTINIERE",,47.468818,-0.433327,,,1,,,0
zone_POINCARE,,"POINCARE",,47.500277,-0.589483,,,1,,,0
zone_POINT_DU_JOUR,,"POINT DU JOUR",,47.474387,-0.319791,,,1,,,0
zone_POIREL,,"POIREL",,47.461698,-0.562097,,,1,,,0
zone_POIVRE,,"POIVRE",,47.513573,-0.593032,,,1,,,0
zone_POLE_49,,"POLE 49",,47.489047,-0.490902,,,1,,,0
zone_POLE_TASSIGNY,,"POLE TASSIGNY",,47.446806,-0.536513,,,1,,,0
zone_POLIGUET,,"POLIGUET",,47.494530,-0.397327,,,1,,,0
zone_POLYTECH_ANGERS,,"POLYTECH ANGERS",,47.480654,-0.594593,,,1,,,0
zone_POMANJOU,,"POMANJOU",,47.500233,-0.520737,,,1,,,0
zone_POMONE,,"POMONE",,47.481469,-0.574360,,,1,,,0
zone_POMPIDOU,,"POMPIDOU",,47.492065,-0.592230,,,1,,,0
zone_PONT_AUX_FILLES,,"PONT AUX FILLES",,47.512659,-0.514982,,,1,,,0
zone_PONT_LAITIER,,"PONT LAITIER",,47.413190,-0.617007,,,1,,,0
zone_PONT_NOIR,,"PONT NOIR",,47.463995,-0.562692,,,1,,,0
zone_PORT_LAUNAY,,"PORT LAUNAY",,47.520896,-0.521565,,,1,,,0
zone_POUILLE,,"POUILLE",,47.432913,-0.531831,,,1,,,0
zone_PREVERT,,"PREVERT",,47.487784,-0.597523,,,1,,,0
zone_PRIEURE,,"PRIEURE",,47.471986,-0.633437,,,1,,,0
zone_PRINCE,,"PRINCE",,47.389568,-0.525753,,,1,,,0
zone_PROMENIERS,,"PROMENIERS",,47.477372,-0.631353,,,1,,,0
zone_PROUDHON,,"PROUDHON",,47.461660,-0.603307,,,1,,,0
zone_PROVINS,,"PROVINS",,47.492606,-0.501993,,,1,,,0
zone_PRUILLE,,"PRUILLE",,47.576840,-0.662790,,,1,,,0
zone_PRUNIERS,,"PRUNIERS",,47.449282,-0.602468,,,1,,,0
zone_PYRAMIDE,,"PYRAMIDE",,47.440959,-0.488437,,,1,,,0
zone_QUANTINIERE,,"QUANTINIERE",,47.455289,-0.471583,,,1,,,0
zone_QUATRE_VENTS,,"QUATRE VENTS",,47.497244,-0.420842,,,1,,,0
zone_RABELAIS,,"RABELAIS",,47.461734,-0.546920,,,1,,,0
zone_RAINIERE,,"RAINIERE",,47.578770,-0.476870,,,1,,,0
zone_RALLIEMENT,,"RALLIEMENT",,47.471490,-0.551680,,,1,,,0
zone_RAMON,,"RAMON",,47.486629,-0.537928,,,1,,,0
zone_RANGEARDIERE,,"RANGEARDIERE",,47.410130,-0.622736,,,1,,,0
zone_RAPIDEX,,"RAPIDEX",,47.502754,-0.513859,,,1,,,0
zone_RASPAIL,,"RASPAIL",,47.475055,-0.570048,,,1,,,0
zone_RENARDIERE,,"RENARDIERE",,47.483876,-0.674078,,,1,,,0
zone_RENARDIERES_SARRIGNÉ,,"RENARDIERES SARRIGNÉ",,47.493465,-0.389127,,,1,,,0
zone_RENARDIÈRES_SARRIGNÉ,,"RENARDIÈRES SARRIGNÉ",,47.493492,-0.389110,,,1,,,0
zone_RENE_CLAIR,,"RENE CLAIR",,47.536671,-0.621767,,,1,,,0
zone_RENOU,,"RENOU",,47.437364,-0.486776,,,1,,,0
zone_REPUBLIQUE,,"REPUBLIQUE",,47.471701,-0.553932,,,1,,,0
zone_REPUBLIQUE_MONTREUIL,,"REPUBLIQUE MONTREUIL",,47.528919,-0.610971,,,1,,,0
zone_REPUBLIQUE_TRELAZE,,"REPUBLIQUE TRELAZE",,47.450605,-0.504226,,,1,,,0
zone_RESIDENCE,,"RESIDENCE",,47.572810,-0.486910,,,1,,,0
zone_RESTAU_U,,"RESTAU U",,47.479527,-0.600159,,,1,,,0
zone_RESTAURANT_JEANNE_DE_LAVAL,,"RESTAURANT JEANNE DE LAVAL",,47.456940,-0.393809,,,1,,,0
zone_REUSSIERES,,"REUSSIERES",,47.569550,-0.562640,,,1,,,0
zone_REVERIES,,"REVERIES",,47.482068,-0.577872,,,1,,,0
zone_REZEAU,,"REZEAU",,47.467917,-0.378972,,,1,,,0
zone_RIDEREAU,,"RIDEREAU",,47.478000,-0.391116,,,1,,,0
zone_RIMOUX,,"RIMOUX",,47.475938,-0.355832,,,1,,,0
zone_RIOTTEAU,,"RIOTTEAU",,47.443910,-0.498717,,,1,,,0
zone_RIPOLLET,,"RIPOLLET",,47.511155,-0.588417,,,1,,,0
zone_RIVET,,"RIVET",,47.436729,-0.515902,,,1,,,0
zone_ROBIN,,"ROBIN",,47.476162,-0.593849,,,1,,,0
zone_ROBINIERES,,"ROBINIERES",,47.470734,-0.697238,,,1,,,0
zone_ROC_EPINE,,"ROC EPINE",,47.480288,-0.575826,,,1,,,0
zone_ROCHE_AUX_MOINES,,"ROCHE AUX MOINES",,47.393884,-0.645756,,,1,,,0
zone_ROCHE_MAROTTE,,"ROCHE MAROTTE",,47.447530,-0.519330,,,1,,,0
zone_ROCHE_TINARD,,"ROCHE TINARD",,47.496397,-0.402313,,,1,,,0
zone_RODIN,,"RODIN",,47.476076,-0.625645,,,1,,,0
zone_ROI_DE_POLOGNE,,"ROI DE POLOGNE",,47.469545,-0.561275,,,1,,,0
zone_ROMANERIE,,"ROMANERIE",,47.484597,-0.507800,,,1,,,0
zone_RONCERAY,,"RONCERAY",,47.529993,-0.564904,,,1,,,0
zone_RONCEVAUX,,"RONCEVAUX",,47.486731,-0.598707,,,1,,,0
zone_RONCIERES,,"RONCIERES",,47.436057,-0.513543,,,1,,,0
zone_ROSTAND,,"ROSTAND",,47.434350,-0.513751,,,1,,,0
zone_ROUAIRIE,,"ROUAIRIE",,47.475597,-0.638859,,,1,,,0
zone_ROUTE_D'ANGERS,,"ROUTE D'ANGERS",,47.425482,-0.556219,,,1,,,0
zone_ROUTE_DE_BOUCHEMAINE,,"ROUTE DE BOUCHEMAINE",,47.444949,-0.577238,,,1,,,0
zone_ROUTE_DE_BRAIN,,"ROUTE DE BRAIN",,47.421431,-0.399146,,,1,,,0
zone_ROUTE_DE_BRIOLLAY,,"ROUTE DE BRIOLLAY",,47.486367,-0.532830,,,1,,,0
zone_ROUTE_DE_CHAMPIGNE,,"ROUTE DE CHAMPIGNE",,47.572355,-0.593360,,,1,,,0
zone_ROUTE_DE_LA_CHANSONNIERE,,"ROUTE DE LA CHANSONNIERE",,47.583810,-0.483570,,,1,,,0
zone_ROUTE_DE_LA_MEIGNANNE,,"ROUTE DE LA MEIGNANNE",,47.477764,-0.639337,,,1,,,0
zone_ROUTE_DE_LA_ROUSSIERE,,"ROUTE DE LA ROUSSIERE",,47.571868,-0.650043,,,1,,,0
zone_ROUTE_DE_L'ETANG,,"ROUTE DE L'ETANG",,47.507910,-0.607230,,,1,,,0
zone_ROUTE_DE_PARIS,,"ROUTE DE PARIS",,47.489778,-0.507383,,,1,,,0
zone_ROUTE_DE_SORGES,,"ROUTE DE SORGES",,47.432110,-0.489480,,,1,,,0
zone_ROUTE_DE_TIERCE,,"ROUTE DE TIERCE",,47.584270,-0.496800,,,1,,,0
zone_ROUTE_DES_GILARDIERES,,"ROUTE DES GILARDIERES",,47.385940,-0.564700,,,1,,,0
zone_ROUTE_DU_PLESSIS,,"ROUTE DU PLESSIS",,47.525669,-0.666841,,,1,,,0
zone_ROUTE_N_4,,"ROUTE N 4",,47.441821,-0.492322,,,1,,,0
zone_RUE_COURTE,,"RUE COURTE",,47.419663,-0.328085,,,1,,,0
zone_RUELLES,,"RUELLES",,47.437651,-0.530619,,,1,,,0
zone_SABLONS,,"SABLONS",,47.439974,-0.533171,,,1,,,0
zone_SAILLERIE,,"SAILLERIE",,47.486533,-0.506796,,,1,,,0
zone_SAINT_AUBIN_LA_SALLE,,"SAINT AUBIN LA SALLE",,47.489725,-0.503178,,,1,,,0
zone_SAINT_BARTHELEMY,,"SAINT BARTHELEMY",,47.472638,-0.485837,,,1,,,0
zone_SAINT_BARTHELEMY_VERDUN,,"SAINT BARTHELEMY VERDUN",,47.468466,-0.492817,,,1,,,0
zone_SAINT_EXUPERY,,"SAINT EXUPERY",,47.468058,-0.536567,,,1,,,0
zone_SAINT_GILLES,,"SAINT GILLES",,47.506515,-0.589365,,,1,,,0
zone_SAINT_GILLES_PLESSIS_GRAMMOIRE,,"SAINT GILLES PLESSIS GRAMMOIRE",,47.495171,-0.431752,,,1,,,0
zone_SAINT_JACQUES,,"SAINT JACQUES",,47.473663,-0.571190,,,1,,,0
zone_SAINT_JOSEPH,,"SAINT JOSEPH",,47.464920,-0.540999,,,1,,,0
zone_SAINT_LAUD,,"SAINT LAUD",,47.417730,-0.522510,,,1,,,0
zone_SAINT_LEGER_MOULIN,,"SAINT LEGER MOULIN",,47.461576,-0.707944,,,1,,,0
zone_SAINT_LEONARD,,"SAINT LEONARD",,47.459783,-0.520866,,,1,,,0
zone_SAINT_LOUIS,,"SAINT LOUIS",,47.487749,-0.586595,,,1,,,0
zone_SAINT_MELAINE,,"SAINT MELAINE",,47.370530,-0.496340,,,1,,,0
zone_SAINT_NICOLAS,,"SAINT NICOLAS",,47.473692,-0.577928,,,1,,,0
zone_SAINT_SERGE_UNIVERSITE,,"SAINT SERGE UNIVERSITE",,47.477564,-0.551105,,,1,,,0
zone_SAINT_SYLVAIN,,"SAINT SYLVAIN",,47.525217,-0.460816,,,1,,,0
zone_SAINT_SYLVAIN_INTERMEDIAIRE,,"SAINT SYLVAIN INTERMEDIAIRE",,47.512098,-0.471689,,,1,,,0
zone_SAINTE_CROIX,,"SAINTE CROIX",,47.469964,-0.554283,,,1,,,0
zone_SAINTE_GEMMES_-_ROCHE_MORNA,,"SAINTE GEMMES - ROCHE MORNA",,47.420320,-0.581281,,,1,,,0
zone_SAINTE_THERESE,,"SAINTE THERESE",,47.480856,-0.564233,,,1,,,0
zone_SALETTE,,"SALETTE",,47.512674,-0.586654,,,1,,,0
zone_SALLE_DE_SPORT,,"SALLE DE SPORT",,47.561846,-0.505224,,,1,,,0
zone_SARRIGNE_LES_PLANTES,,"SARRIGNE LES PLANTES",,47.502727,-0.378812,,,1,,,0
zone_SAULAIS,,"SAULAIS",,47.470294,-0.461697,,,1,,,0
zone_SAUMUROISE,,"SAUMUROISE",,47.457295,-0.531873,,,1,,,0
zone_SAVARY,,"SAVARY",,47.473512,-0.541334,,,1,,,0
zone_SAVENNIERES_MAIL,,"SAVENNIERES MAIL",,47.383295,-0.655835,,,1,,,0
zone_SCANIA,,"SCANIA",,47.493580,-0.522292,,,1,,,0
zone_SCANIA_MURS_ERIGNE,,"SCANIA MURS ERIGNE",,47.383820,-0.548770,,,1,,,0
zone_SCHWALBACH,,"SCHWALBACH",,47.504031,-0.602299,,,1,,,0
zone_SCHWEITZER,,"SCHWEITZER",,47.482575,-0.522067,,,1,,,0
zone_SECURITE_SOCIALE,,"SECURITE SOCIALE",,47.469120,-0.540062,,,1,,,0
zone_SEPT_SONNETTES,,"SEPT SONNETTES",,47.486752,-0.513545,,,1,,,0
zone_SHAKESPEARE,,"SHAKESPEARE",,47.461940,-0.612490,,,1,,,0
zone_SOLAND,,"SOLAND",,47.399550,-0.529531,,,1,,,0
zone_SOLEIL_LEVANT,,"SOLEIL LEVANT",,47.484642,-0.517323,,,1,,,0
zone_SORGES,,"SORGES",,47.431808,-0.485123,,,1,,,0
zone_SOUCELLES,,"SOUCELLES",,47.570132,-0.420353,,,1,,,0
zone_SOUCELLES_MAIRIE,,"SOUCELLES MAIRIE",,47.571132,-0.420382,,,1,,,0
zone_SOULAIRE,,"SOULAIRE",,47.577525,-0.554177,,,1,,,0
zone_STADE_DE_PELLOUAILLES,,"STADE DE PELLOUAILLES",,47.523355,-0.438853,,,1,,,0
zone_STADE_DE_SAINT_BARTHELEMY,,"STADE DE SAINT BARTHELEMY",,47.461331,-0.491890,,,1,,,0
zone_STADE_RAYMOND_KOPA,,"STADE RAYMOND KOPA",,47.461444,-0.531138,,,1,,,0
zone_STRASBOURG,,"STRASBOURG",,47.457472,-0.554090,,,1,,,0
zone_TALET,,"TALET",,47.476673,-0.547270,,,1,,,0
zone_TANCELLERIE,,"TANCELLERIE",,47.515983,-0.663664,,,1,,,0
zone_TARTELUSSE,,"TARTELUSSE",,47.558783,-0.437558,,,1,,,0
zone_TARTIFUME,,"TARTIFUME",,47.555113,-0.447288,,,1,,,0
zone_TERNIERE,,"TERNIERE",,47.505715,-0.592724,,,1,,,0
zone_TERRA_BOTANICA,,"TERRA BOTANICA",,47.494275,-0.574792,,,1,,,0
zone_THOMASSERIE,,"THOMASSERIE",,47.462941,-0.623857,,,1,,,0
zone_TINELLIERE,,"TINELLIERE",,47.483750,-0.431450,,,1,,,0
zone_TOURAINE,,"TOURAINE",,47.539122,-0.435361,,,1,,,0
zone_TRELAZE_BUISSON,,"TRELAZE BUISSON",,47.442001,-0.484008,,,1,,,0
zone_TRELAZE_QUANTINIERE,,"TRELAZE QUANTINIERE",,47.459836,-0.474381,,,1,,,0
zone_TRELAZE_SAINT_LEZIN,,"TRELAZE SAINT LEZIN",,47.450430,-0.488306,,,1,,,0
zone_TRINITE,,"TRINITE",,47.475264,-0.561754,,,1,,,0
zone_TROIS_PAROISSES,,"TROIS PAROISSES",,47.441943,-0.534623,,,1,,,0
zone_TURNER,,"TURNER",,47.511470,-0.598710,,,1,,,0
zone_UNION,,"UNION",,47.519613,-0.475215,,,1,,,0
zone_VAILLANTE,,"VAILLANTE",,47.485347,-0.533408,,,1,,,0
zone_VAL_DE_LOIRE,,"VAL DE LOIRE",,47.449043,-0.513421,,,1,,,0
zone_VAL_DE_MAINE,,"VAL DE MAINE",,47.443106,-0.612410,,,1,,,0
zone_VALENTIN_HAUY,,"VALENTIN HAUY",,47.486018,-0.555673,,,1,,,0
zone_VALEO,,"VALEO",,47.502095,-0.516708,,,1,,,0
zone_VALLON,,"VALLON",,47.463644,-0.601834,,,1,,,0
zone_VANDELLANT,,"VANDELLANT",,47.478285,-0.520932,,,1,,,0
zone_VARENNES,,"VARENNES",,47.566008,-0.504505,,,1,,,0
zone_VAUBAN,,"VAUBAN",,47.460240,-0.560745,,,1,,,0
zone_VAUGAREAU,,"VAUGAREAU",,47.483668,-0.526716,,,1,,,0
zone_VAURAGERE,,"VAURAGERE",,47.472895,-0.635421,,,1,,,0
zone_VEAU_DORE,,"VEAU DORE",,47.476558,-0.413412,,,1,,,0
zone_VEAU_DORÉ,,"VEAU DORÉ",,47.476118,-0.413587,,,1,,,0
zone_VEILLEROT,,"VEILLEROT",,47.521310,-0.472200,,,1,,,0
zone_VENAISERIE,,"VENAISERIE",,47.471027,-0.489641,,,1,,,0
zone_VENAISERIE_COLLEGE,,"VENAISERIE COLLEGE",,47.471672,-0.486163,,,1,,,0
zone_VERIGNE,,"VERIGNE",,47.588282,-0.493522,,,1,,,0
zone_VERNEAU_AQUAVITA_(08),,"VERNEAU AQUAVITA (08)",,47.493119,-0.568628,,,1,,,0
zone_VERNEAU_TRAM,,"VERNEAU TRAM",,47.492569,-0.567160,,,1,,,0
zone_VERNUSSON_FLORILOIRE,,"VERNUSSON FLORILOIRE",,47.430672,-0.542305,,,1,,,0
zone_VICTOR_HUGO,,"VICTOR HUGO",,47.523636,-0.467433,,,1,,,0
zone_VICTOR_HUGO_MONTREUIL,,"VICTOR HUGO MONTREUIL",,47.528250,-0.611728,,,1,,,0
zone_VIEILLE_MAINE,,"VIEILLE MAINE",,47.530020,-0.527759,,,1,,,0
zone_VIEUX_PORT,,"VIEUX PORT",,47.570760,-0.493520,,,1,,,0
zone_VILLAGE_SANTE,,"VILLAGE SANTE",,47.457462,-0.512020,,,1,,,0
zone_VILLECHIEN,,"VILLECHIEN",,47.463248,-0.519546,,,1,,,0
zone_VILLENEUVE,,"VILLENEUVE",,47.508396,-0.434720,,,1,,,0
zone_VILLESICARD,,"VILLESICARD",,47.452493,-0.538347,,,1,,,0
zone_VILLON,,"VILLON",,47.433755,-0.522856,,,1,,,0
zone_VIRELET,,"VIRELET",,47.478724,-0.340187,,,1,,,0
zone_VIVIERS,,"VIVIERS",,47.451651,-0.534972,,,1,,,0
zone_VOISINAY,,"VOISINAY",,47.148946,-0.345451,,,1,,,0
zone_VOLNEY,,"VOLNEY",,47.460609,-0.538027,,,1,,,0
zone_VOLTAIRE,,"VOLTAIRE",,47.484839,-0.530974,,,1,,,0
zone_WALCOURT,,"WALCOURT",,47.463359,-0.486023,,,1,,,0
zone_WIGAN,,"WIGAN",,47.459491,-0.608151,,,1,,,0
zone_ZA_FENEU_ARRIVEE,,"ZA FENEU ARRIVEE",,47.579177,-0.591380,,,1,,,0
zone_ZA_FENEU_DEPART,,"ZA FENEU DEPART",,47.579284,-0.591374,,,1,,,0
zone_ZI_BEAUCOUZE,,"ZI BEAUCOUZE",,47.461139,-0.619300,,,1,,,0
zone_ZI_BRUNELLERIES,,"ZI BRUNELLERIES",,47.434985,-0.614780,,,1,,,0
zone_ZI_EST,,"ZI EST",,47.475307,-0.495601,,,1,,,0
zone_ZI_TRELAZE_-_MALEMBARDIERES,,"ZI TRELAZE - MALEMBARDIERES",,47.451608,-0.473465,,,1,,,0
zone_ZONE_ARTISANALE,,"ZONE ARTISANALE",,47.579654,-0.591981,,,1,,,0
